API5,FIPS5,STATE,COUNTY,LATITUDE,LONGITUDE,STATE_NAME
01001,01001,AL,AUTAUGA,32.532237,-86.64644,ALABAMA
01003,01003,AL,BALDWIN,30.659218,-87.746067,ALABAMA
01005,01005,AL,BARBOUR,31.870253,-85.405104,ALABAMA
01007,01007,AL,BIBB,33.015893,-87.127148,ALABAMA
01009,01009,AL,BLOUNT,33.977358,-86.56644,ALABAMA
01011,01011,AL,BULLOCK,32.101759,-85.717261,ALABAMA
01013,01013,AL,BUTLER,31.751667,-86.681969,ALABAMA
01015,01015,AL,CALHOUN,33.771706,-85.822513,ALABAMA
01017,01017,AL,CHAMBERS,32.915504,-85.394032,ALABAMA
01019,01019,AL,CHEROKEE,34.069515,-85.654242,ALABAMA
01021,01021,AL,CHILTON,32.854051,-86.726607,ALABAMA
01023,01023,AL,CHOCTAW,31.990954,-88.248889,ALABAMA
01025,01025,AL,CLARKE,31.685521,-87.818624,ALABAMA
01027,01027,AL,CLAY,33.2704,-85.863525,ALABAMA
01029,01029,AL,CLEBURNE,33.671964,-85.516126,ALABAMA
01031,01031,AL,COFFEE,31.402258,-85.989602,ALABAMA
01033,01033,AL,COLBERT,34.703112,-87.801457,ALABAMA
01035,01035,AL,CONECUH,31.430926,-86.988722,ALABAMA
01037,01037,AL,COOSA,32.931445,-86.243482,ALABAMA
01039,01039,AL,COVINGTON,31.243987,-86.448721,ALABAMA
01041,01041,AL,CRENSHAW,31.732826,-86.319222,ALABAMA
01043,01043,AL,CULLMAN,34.131923,-86.869267,ALABAMA
01045,01045,AL,DALE,31.430654,-85.609476,ALABAMA
01047,01047,AL,DALLAS,32.33354,-87.114356,ALABAMA
01049,01049,AL,DEKALB,34.460929,-85.803992,ALABAMA
01051,01051,AL,ELMORE,32.597229,-86.142735,ALABAMA
01053,01053,AL,ESCAMBIA,31.122287,-87.16841,ALABAMA
01055,01055,AL,ETOWAH,34.047641,-86.034263,ALABAMA
01057,01057,AL,FAYETTE,33.716157,-87.764292,ALABAMA
01059,01059,AL,FRANKLIN,34.441989,-87.842814,ALABAMA
01061,01061,AL,GENEVA,31.092382,-85.821022,ALABAMA
01063,01063,AL,GREENE,32.844497,-87.9642,ALABAMA
01065,01065,AL,HALE,32.752796,-87.623061,ALABAMA
01067,01067,AL,HENRY,31.516978,-85.239971,ALABAMA
01069,01069,AL,HOUSTON,31.158183,-85.296411,ALABAMA
01071,01071,AL,JACKSON,34.764114,-85.980056,ALABAMA
01073,01073,AL,JEFFERSON,33.553444,-86.896536,ALABAMA
01075,01075,AL,LAMAR,33.787085,-88.087431,ALABAMA
01077,01077,AL,LAUDERDALE,34.904122,-87.650997,ALABAMA
01079,01079,AL,LAWRENCE,34.529776,-87.321865,ALABAMA
01081,01081,AL,LEE,32.604064,-85.353048,ALABAMA
01083,01083,AL,LIMESTONE,34.810239,-86.981399,ALABAMA
01085,01085,AL,LOWNDES,32.147888,-86.650586,ALABAMA
01087,01087,AL,MACON,32.387027,-85.692887,ALABAMA
01089,01089,AL,MADISON,34.764238,-86.55108,ALABAMA
01091,01091,AL,MARENGO,32.247591,-87.791091,ALABAMA
01093,01093,AL,MARION,34.138219,-87.881551,ALABAMA
01095,01095,AL,MARSHALL,34.309564,-86.321668,ALABAMA
01097,01097,AL,MOBILE,30.684572,-88.196568,ALABAMA
01099,01099,AL,MONROE,31.580332,-87.383266,ALABAMA
01101,01101,AL,MONTGOMERY,32.202881,-86.204461,ALABAMA
01103,01103,AL,MORGAN,34.454484,-86.846402,ALABAMA
01105,01105,AL,PERRY,32.639005,-87.293827,ALABAMA
01107,01107,AL,PICKENS,33.296793,-88.096863,ALABAMA
01109,01109,AL,PIKE,31.798651,-85.941604,ALABAMA
01111,01111,AL,RANDOLPH,33.296475,-85.464068,ALABAMA
01113,01113,AL,RUSSELL,32.289811,-85.18698,ALABAMA
01115,01115,AL,ST. CLAIR,33.712963,-86.315663,ALABAMA
01117,01117,AL,SHELBY,33.263043,-86.678089,ALABAMA
01119,01119,AL,SUMTER,32.597481,-88.200057,ALABAMA
01121,01121,AL,TALLADEGA,33.369314,-86.17593,ALABAMA
01123,01123,AL,TALLAPOOSA,32.863369,-85.799553,ALABAMA
01125,01125,AL,TUSCALOOSA,33.29022,-87.522783,ALABAMA
01127,01127,AL,WALKER,33.791558,-87.301094,ALABAMA
01129,01129,AL,WASHINGTON,31.405217,-88.197564,ALABAMA
01131,01131,AL,WILCOX,31.990082,-87.304935,ALABAMA
01133,01133,AL,WINSTON,34.154607,-87.36529,ALABAMA
01203,,AL,BALDWN O,,,ALABAMA
01297,,AL,MOBILE O,,,ALABAMA
02001,04001,AZ,APACHE,35.385084,-109.490172,ARIZONA
02003,04003,AZ,COCHISE,31.840129,-109.775163,ARIZONA
02005,04005,AZ,COCONINO,35.829692,-111.773728,ARIZONA
02007,04007,AZ,GILA,33.789618,-110.81187,ARIZONA
02009,04009,AZ,GRAHAM,32.931828,-109.87831,ARIZONA
02011,04011,AZ,GREENLEE,33.238872,-109.242323,ARIZONA
02012,04012,AZ,LA PAZ,33.72761,-114.038806,ARIZONA
02013,04013,AZ,MARICOPA,33.346541,-112.495534,ARIZONA
02015,04015,AZ,MOHAVE,35.717705,-113.749689,ARIZONA
02017,04017,AZ,NAVAJO,35.390785,-110.321025,ARIZONA
02019,04019,AZ,PIMA,32.128523,-111.783027,ARIZONA
02021,04021,AZ,PINAL,32.918538,-111.366387,ARIZONA
02023,04023,AZ,SANTA CRUZ,31.525733,-110.845228,ARIZONA
02025,04025,AZ,YAVAPAI,34.631212,-112.577385,ARIZONA
02027,04027,AZ,YUMA,32.773942,-113.910905,ARIZONA
03001,05001,AR,ARKANSAS,34.28957,-91.376547,ARKANSAS
03003,05003,AR,ASHLEY,33.190835,-91.772267,ARKANSAS
03005,05005,AR,BAXTER,36.280759,-92.330476,ARKANSAS
03007,05007,AR,BENTON,36.337836,-94.256224,ARKANSAS
03009,05009,AR,BOONE,36.304299,-93.079236,ARKANSAS
03011,05011,AR,BRADLEY,33.466549,-92.169156,ARKANSAS
03013,05013,AR,CALHOUN,33.56046,-92.513879,ARKANSAS
03015,05015,AR,CARROLL,36.337774,-93.541663,ARKANSAS
03017,05017,AR,CHICOT,33.267139,-91.297158,ARKANSAS
03019,05019,AR,CLARK,34.053316,-93.176208,ARKANSAS
03021,05021,AR,CLAY,36.367302,-90.418704,ARKANSAS
03023,05023,AR,CLEBURNE,35.566315,-92.05995,ARKANSAS
03025,05025,AR,CLEVELAND,33.893201,-92.188714,ARKANSAS
03027,05027,AR,COLUMBIA,33.223038,-93.232843,ARKANSAS
03029,05029,AR,CONWAY,35.265702,-92.689248,ARKANSAS
03031,05031,AR,CRAIGHEAD,35.827729,-90.631421,ARKANSAS
03033,05033,AR,CRAWFORD,35.583011,-94.236219,ARKANSAS
03035,05035,AR,CRITTENDEN,35.211879,-90.315332,ARKANSAS
03037,05037,AR,CROSS,35.285692,-90.763984,ARKANSAS
03039,05039,AR,DALLAS,33.967823,-92.653999,ARKANSAS
03041,05041,AR,DESHA,33.828752,-91.244103,ARKANSAS
03043,05043,AR,DREW,33.587242,-91.722778,ARKANSAS
03045,05045,AR,FAULKNER,35.146286,-92.324711,ARKANSAS
03047,05047,AR,FRANKLIN,35.508558,-93.887665,ARKANSAS
03049,05049,AR,FULTON,36.383619,-91.819664,ARKANSAS
03051,05051,AR,GARLAND,34.578852,-93.146932,ARKANSAS
03053,05053,AR,GRANT,34.285568,-92.422979,ARKANSAS
03055,05055,AR,GREENE,36.120607,-90.566346,ARKANSAS
03057,05057,AR,HEMPSTEAD,33.728611,-93.665809,ARKANSAS
03059,05059,AR,HOT SPRING,34.315177,-92.944147,ARKANSAS
03061,05061,AR,HOWARD,34.083064,-93.990931,ARKANSAS
03063,05063,AR,INDEPENDENCE,35.737499,-91.559942,ARKANSAS
03065,05065,AR,IZARD,36.094879,-91.913625,ARKANSAS
03067,05067,AR,JACKSON,35.596467,-91.223205,ARKANSAS
03069,05069,AR,JEFFERSON,34.277628,-91.930701,ARKANSAS
03071,05071,AR,JOHNSON,35.573359,-93.466322,ARKANSAS
03073,05073,AR,LAFAYETTE,33.240629,-93.611514,ARKANSAS
03075,05075,AR,LAWRENCE,36.041098,-91.101153,ARKANSAS
03077,05077,AR,LEE,34.779858,-90.779345,ARKANSAS
03079,05079,AR,LINCOLN,33.957675,-91.727626,ARKANSAS
03081,05081,AR,LITTLE RIVER,33.699497,-94.229774,ARKANSAS
03083,05083,AR,LOGAN,35.218654,-93.72091,ARKANSAS
03085,05085,AR,LONOKE,34.755114,-91.894132,ARKANSAS
03087,05087,AR,MADISON,36.012545,-93.724053,ARKANSAS
03089,05089,AR,MARION,36.266664,-92.678577,ARKANSAS
03091,05091,AR,MILLER,33.305505,-93.901502,ARKANSAS
03093,05093,AR,MISSISSIPPI,35.766944,-90.052207,ARKANSAS
03095,05095,AR,MONROE,34.679512,-91.20331,ARKANSAS
03097,05097,AR,MONTGOMERY,34.545581,-93.663329,ARKANSAS
03099,05099,AR,NEVADA,33.666699,-93.305072,ARKANSAS
03101,05101,AR,NEWTON,35.910742,-93.215899,ARKANSAS
03103,05103,AR,OUACHITA,33.591168,-92.878413,ARKANSAS
03105,05105,AR,PERRY,34.946363,-92.926877,ARKANSAS
03107,05107,AR,PHILLIPS,34.423687,-90.855593,ARKANSAS
03109,05109,AR,PIKE,34.158191,-93.658659,ARKANSAS
03111,05111,AR,POINSETT,35.56887,-90.681104,ARKANSAS
03113,05113,AR,POLK,34.490915,-94.230884,ARKANSAS
03115,05115,AR,POPE,35.456557,-93.026818,ARKANSAS
03117,05117,AR,PRAIRIE,34.831116,-91.55362,ARKANSAS
03119,05119,AR,PULASKI,34.770311,-92.312996,ARKANSAS
03121,05121,AR,RANDOLPH,36.341298,-91.028441,ARKANSAS
03123,05123,AR,ST. FRANCIS,35.014026,-90.742138,ARKANSAS
03125,05125,AR,SALINE,34.648525,-92.674463,ARKANSAS
03127,05127,AR,SCOTT,34.858869,-94.063641,ARKANSAS
03129,05129,AR,SEARCY,35.896387,-92.695888,ARKANSAS
03131,05131,AR,SEBASTIAN,35.196981,-94.274989,ARKANSAS
03133,05133,AR,SEVIER,33.994877,-94.243279,ARKANSAS
03135,05135,AR,SHARP,36.173399,-91.471069,ARKANSAS
03137,05137,AR,STONE,35.857017,-92.140508,ARKANSAS
03139,05139,AR,UNION,33.168219,-92.598145,ARKANSAS
03141,05141,AR,VAN BUREN,35.582953,-92.515976,ARKANSAS
03143,05143,AR,WASHINGTON,35.971209,-94.218417,ARKANSAS
03145,05145,AR,WHITE,35.255118,-91.753034,ARKANSAS
03147,05147,AR,WOODRUFF,35.192777,-91.244535,ARKANSAS
03149,05149,AR,YELL,34.997713,-93.408303,ARKANSAS
04001,06001,CA,ALAMEDA,37.647139,-121.912488,CALIFORNIA
04003,06003,CA,ALPINE,38.621783,-119.798352,CALIFORNIA
04005,06005,CA,AMADOR,38.44355,-120.653856,CALIFORNIA
04007,06007,CA,BUTTE,39.665959,-121.601919,CALIFORNIA
04009,06009,CA,CALAVERAS,38.1839,-120.561441,CALIFORNIA
04011,06011,CA,COLUSA,39.177739,-122.237563,CALIFORNIA
04013,06013,CA,CONTRA COSTA,37.919479,-121.951543,CALIFORNIA
04015,06015,CA,DEL NORTE,41.763958,-124.003614,CALIFORNIA
04017,06017,CA,EL DORADO,38.785532,-120.534398,CALIFORNIA
04019,06019,CA,FRESNO,36.761006,-119.655019,CALIFORNIA
04021,06021,CA,GLENN,39.602546,-122.4017,CALIFORNIA
04023,06023,CA,HUMBOLDT,40.706655,-123.926176,CALIFORNIA
04025,06025,CA,IMPERIAL,33.040814,-115.3554,CALIFORNIA
04027,06027,CA,INYO,36.561977,-117.403927,CALIFORNIA
04029,06029,CA,KERN,35.346629,-118.729506,CALIFORNIA
04030,,CA,KERN,,,CALIFORNIA
04031,06031,CA,KINGS,36.072478,-119.81553,CALIFORNIA
04033,06033,CA,LAKE,39.094802,-122.746757,CALIFORNIA
04035,06035,CA,LASSEN,40.721086,-120.629952,CALIFORNIA
04037,06037,CA,LOS ANGELES,34.196398,-118.261862,CALIFORNIA
04039,06039,CA,MADERA,37.209821,-119.749802,CALIFORNIA
04041,06041,CA,MARIN,38.051817,-122.745974,CALIFORNIA
04043,06043,CA,MARIPOSA,37.57003,-119.912861,CALIFORNIA
04045,06045,CA,MENDOCINO,39.432388,-123.442881,CALIFORNIA
04047,06047,CA,MERCED,37.194806,-120.722802,CALIFORNIA
04049,06049,CA,MODOC,41.592918,-120.71837,CALIFORNIA
04051,06051,CA,MONO,37.915836,-118.875167,CALIFORNIA
04053,06053,CA,MONTEREY,36.240107,-121.315572,CALIFORNIA
04055,06055,CA,NAPA,38.5071,-122.325904,CALIFORNIA
04057,06057,CA,NEVADA,39.297508,-120.771343,CALIFORNIA
04059,06059,CA,ORANGE,33.675687,-117.777207,CALIFORNIA
04061,06061,CA,PLACER,39.062032,-120.722718,CALIFORNIA
04063,06063,CA,PLUMAS,39.992295,-120.824371,CALIFORNIA
04065,06065,CA,RIVERSIDE,33.729828,-116.002239,CALIFORNIA
04067,06067,CA,SACRAMENTO,38.450016,-121.340441,CALIFORNIA
04069,06069,CA,SAN BENITO,36.610702,-121.085296,CALIFORNIA
04071,06071,CA,SAN BERNARDINO,34.85722,-116.181197,CALIFORNIA
04073,06073,CA,SAN DIEGO,33.023604,-116.776117,CALIFORNIA
04075,06075,CA,SAN FRANCISCO,37.727239,-123.032229,CALIFORNIA
04077,06077,CA,SAN JOAQUIN,37.934982,-121.272244,CALIFORNIA
04079,06079,CA,SAN LUIS OBISPO,35.385224,-120.447544,CALIFORNIA
04081,06081,CA,SAN MATEO,37.414672,-122.371546,CALIFORNIA
04083,06083,CA,SANTA BARBARA,34.537057,-120.039973,CALIFORNIA
04085,06085,CA,SANTA CLARA,37.220777,-121.690622,CALIFORNIA
04087,06087,CA,SANTA CRUZ,37.012488,-122.007205,CALIFORNIA
04089,06089,CA,SHASTA,40.760514,-122.043556,CALIFORNIA
04091,06091,CA,SIERRA,39.576925,-120.521993,CALIFORNIA
04093,06093,CA,SISKIYOU,41.587986,-122.533287,CALIFORNIA
04095,06095,CA,SOLANO,38.267226,-121.939594,CALIFORNIA
04097,06097,CA,SONOMA,38.525182,-122.92611,CALIFORNIA
04099,06099,CA,STANISLAUS,37.562316,-121.002831,CALIFORNIA
04101,06101,CA,SUTTER,39.03619,-121.70394,CALIFORNIA
04103,06103,CA,TEHAMA,40.126157,-122.232274,CALIFORNIA
04105,06105,CA,TRINITY,40.647803,-123.114476,CALIFORNIA
04107,06107,CA,TULARE,36.228834,-118.781055,CALIFORNIA
04109,06109,CA,TUOLUMNE,38.021434,-119.964733,CALIFORNIA
04111,06111,CA,VENTURA,34.358741,-119.133143,CALIFORNIA
04113,06113,CA,YOLO,38.679595,-121.902441,CALIFORNIA
04115,06115,CA,YUBA,39.266247,-121.340781,CALIFORNIA
04116,,CA,ANACAPAI,,,CALIFORNIA
04118,,CA,SNCLMNTI,,,CALIFORNIA
04120,,CA,SNMIGULI,,,CALIFORNIA
04122,,CA,SNNCOLSI,,,CALIFORNIA
04124,,CA,SNTBRBRI,,,CALIFORNIA
04126,,CA,SNTCTLNI,,,CALIFORNIA
04128,,CA,SNTCRUZI,,,CALIFORNIA
04130,,CA,STA ROSA,,,CALIFORNIA
04201,,CA,ALAMDA O,,,CALIFORNIA
04211,,CA,VENTRA O,,,CALIFORNIA
04213,,CA,CNT CO O,,,CALIFORNIA
04215,,CA,DL NOT O,,,CALIFORNIA
04216,,CA,ANACPA O,,,CALIFORNIA
04218,,CA,SN CLM O,,,CALIFORNIA
04220,,CA,SN MIG O,,,CALIFORNIA
04222,,CA,SN NCL O,,,CALIFORNIA
04223,,CA,HMBLDT O,,,CALIFORNIA
04224,,CA,SNT BR O,,,CALIFORNIA
04226,,CA,SNT CT O,,,CALIFORNIA
04228,,CA,SNT CZ O,,,CALIFORNIA
04230,,CA,SNT RS O,,,CALIFORNIA
04237,,CA,LS ANG O,,,CALIFORNIA
04241,,CA,MARIN O,,,CALIFORNIA
04245,,CA,MENDCN O,,,CALIFORNIA
04253,,CA,MONTRY O,,,CALIFORNIA
04255,,CA,NAPA O,,,CALIFORNIA
04259,,CA,ORANGE O,,,CALIFORNIA
04273,,CA,SN DGO O,,,CALIFORNIA
04275,,CA,SN FRN O,,,CALIFORNIA
04279,,CA,SN LUS O,,,CALIFORNIA
04281,,CA,SN MTE O,,,CALIFORNIA
04283,,CA,SNT BR O,,,CALIFORNIA
04287,,CA,SNT CZ O,,,CALIFORNIA
04295,,CA,SOLANO O,,,CALIFORNIA
04297,,CA,SONOMA O,,,CALIFORNIA
04310,,CA,MOR BY O,,,CALIFORNIA
04311,,CA,SNT CZ O,,,CALIFORNIA
04312,,CA,SNT CT O,,,CALIFORNIA
04313,,CA,SN NCL O,,,CALIFORNIA
05001,08001,CO,ADAMS,39.874325,-104.331872,COLORADO
05003,08003,CO,ALAMOSA,37.568442,-105.788041,COLORADO
05005,08005,CO,ARAPAHOE,39.644554,-104.331706,COLORADO
05007,08007,CO,ARCHULETA,37.202395,-107.050863,COLORADO
05009,08009,CO,BACA,37.306693,-102.537758,COLORADO
05011,08011,CO,BENT,37.931891,-103.077584,COLORADO
05013,08013,CO,BOULDER,40.09497,-105.397691,COLORADO
05014,08014,CO,BROOMFIELD,39.95321,-105.051995,COLORADO
05015,08015,CO,CHAFFEE,38.738223,-106.316683,COLORADO
05017,08017,CO,CHEYENNE,38.835386,-102.604585,COLORADO
05019,08019,CO,CLEAR CREEK,39.669732,-105.69257,COLORADO
05021,08021,CO,CONEJOS,37.213406,-106.176447,COLORADO
05023,08023,CO,COSTILLA,37.277547,-105.42894,COLORADO
05025,08025,CO,CROWLEY,38.30618,-103.772736,COLORADO
05027,08027,CO,CUSTER,38.101994,-105.373515,COLORADO
05029,08029,CO,DELTA,38.861756,-107.864757,COLORADO
05031,08031,CO,DENVER,39.76185,-104.881105,COLORADO
05033,08033,CO,DOLORES,37.747602,-108.530383,COLORADO
05035,08035,CO,DOUGLAS,39.325414,-104.925987,COLORADO
05037,08037,CO,EAGLE,39.626992,-106.695169,COLORADO
05039,08039,CO,ELBERT,39.310582,-104.117729,COLORADO
05041,08041,CO,EL PASO,38.827383,-104.527472,COLORADO
05043,08043,CO,FREMONT,38.45517,-105.424958,COLORADO
05045,08045,CO,GARFIELD,39.599352,-107.90978,COLORADO
05047,08047,CO,GILPIN,39.861156,-105.528878,COLORADO
05049,08049,CO,GRAND,40.123205,-106.095935,COLORADO
05051,08051,CO,GUNNISON,38.67264,-107.066506,COLORADO
05053,08053,CO,HINSDALE,37.821165,-107.338261,COLORADO
05055,08055,CO,HUERFANO,37.687815,-104.959928,COLORADO
05057,08057,CO,JACKSON,40.663432,-106.329248,COLORADO
05059,08059,CO,JEFFERSON,39.579511,-105.245462,COLORADO
05061,08061,CO,KIOWA,38.387663,-102.756849,COLORADO
05063,08063,CO,KIT CARSON,39.30534,-102.603023,COLORADO
05065,08065,CO,LAKE,39.205341,-106.350079,COLORADO
05067,08067,CO,LA PLATA,37.287367,-107.839718,COLORADO
05069,08069,CO,LARIMER,40.658093,-105.486764,COLORADO
05071,08071,CO,LAS ANIMAS,37.318831,-104.04411,COLORADO
05073,08073,CO,LINCOLN,38.99374,-103.507555,COLORADO
05075,08075,CO,LOGAN,40.728091,-103.090464,COLORADO
05077,08077,CO,MESA,39.019421,-108.461893,COLORADO
05079,08079,CO,MINERAL,37.549067,-107.003236,COLORADO
05081,08081,CO,MOFFAT,40.616358,-108.211099,COLORADO
05083,08083,CO,MONTEZUMA,37.338025,-108.595786,COLORADO
05085,08085,CO,MONTROSE,38.407507,-108.266282,COLORADO
05087,08087,CO,MORGAN,40.263167,-103.812278,COLORADO
05089,08089,CO,OTERO,37.88417,-103.72126,COLORADO
05091,08091,CO,OURAY,38.154731,-107.78848,COLORADO
05093,08093,CO,PARK,39.118914,-105.717648,COLORADO
05095,08095,CO,PHILLIPS,40.594712,-102.345105,COLORADO
05097,08097,CO,PITKIN,39.217332,-106.915783,COLORADO
05099,08099,CO,PROWERS,37.958181,-102.392161,COLORADO
05101,08101,CO,PUEBLO,38.170658,-104.489892,COLORADO
05103,08103,CO,RIO BLANCO,39.972622,-108.200716,COLORADO
05105,08105,CO,RIO GRANDE,37.485853,-106.453128,COLORADO
05107,08107,CO,ROUTT,40.483664,-106.987702,COLORADO
05109,08109,CO,SAGUACHE,38.031651,-106.234666,COLORADO
05111,08111,CO,SAN JUAN,37.781074,-107.670257,COLORADO
05113,08113,CO,SAN MIGUEL,38.009374,-108.427326,COLORADO
05115,08115,CO,SEDGWICK,40.871568,-102.355358,COLORADO
05117,08117,CO,SUMMIT,39.621023,-106.137555,COLORADO
05119,08119,CO,TELLER,38.870023,-105.187339,COLORADO
05121,08121,CO,WASHINGTON,39.96579,-103.209744,COLORADO
05123,08123,CO,WELD,40.555961,-104.383666,COLORADO
05125,08125,CO,YUMA,40.000631,-102.422649,COLORADO
06001,09001,CT,FAIRFIELD,41.227413,-73.367061,CONNECTICUT
06003,09003,CT,HARTFORD,41.806053,-72.732916,CONNECTICUT
06005,09005,CT,LITCHFIELD,41.791883,-73.235404,CONNECTICUT
06007,09007,CT,MIDDLESEX,41.433003,-72.52278,CONNECTICUT
06009,09009,CT,NEW HAVEN,41.349717,-72.900204,CONNECTICUT
06011,09011,CT,NEW LONDON,41.472652,-72.108634,CONNECTICUT
06013,09013,CT,TOLLAND,41.858081,-72.340978,CONNECTICUT
06015,09015,CT,WINDHAM,41.824999,-71.990702,CONNECTICUT
06201,,CT,FIRFLD O,,,CONNECTICUT
06207,,CT,MIDLSX O,,,CONNECTICUT
06209,,CT,NW HVN O,,,CONNECTICUT
06211,,CT,NW LND O,,,CONNECTICUT
07001,10001,DE,KENT,39.097088,-75.502982,DELAWARE
07003,10003,DE,NEW CASTLE,39.575915,-75.644132,DELAWARE
07005,10005,DE,SUSSEX,38.673227,-75.337024,DELAWARE
07205,,DE,SUSSEX O,,,DELAWARE
08001,11001,DC,DISTRICT OF COLUMBIA,38.904103,-77.017229,DISTRICT OF COLUMBIA
09001,12001,FL,ALACHUA,29.67574,-82.357221,FLORIDA
09003,12003,FL,BAKER,30.324442,-82.302284,FLORIDA
09005,12005,FL,BAY,30.238263,-85.63151,FLORIDA
09007,12007,FL,BRADFORD,29.952386,-82.166599,FLORIDA
09009,12009,FL,BREVARD,28.298304,-80.700331,FLORIDA
09011,12011,FL,BROWARD,26.193535,-80.476683,FLORIDA
09013,12013,FL,CALHOUN,30.388801,-85.197915,FLORIDA
09015,12015,FL,CHARLOTTE,26.868933,-81.941077,FLORIDA
09017,12017,FL,CITRUS,28.84364,-82.52481,FLORIDA
09019,12019,FL,CLAY,29.986584,-81.865036,FLORIDA
09021,12021,FL,COLLIER,26.118786,-81.400955,FLORIDA
09023,12023,FL,COLUMBIA,30.221333,-82.623168,FLORIDA
09025,,FL,DADE,,,FLORIDA
09027,12027,FL,DESOTO,27.190581,-81.806253,FLORIDA
09029,12029,FL,DIXIE,29.580899,-83.195666,FLORIDA
09031,12031,FL,DUVAL,30.335245,-81.648113,FLORIDA
09033,12033,FL,ESCAMBIA,30.611638,-87.3389,FLORIDA
09035,12035,FL,FLAGLER,29.474912,-81.286305,FLORIDA
09037,12037,FL,FRANKLIN,29.810176,-84.799174,FLORIDA
09039,12039,FL,GADSDEN,30.578687,-84.612607,FLORIDA
09041,12041,FL,GILCHRIST,29.723456,-82.795801,FLORIDA
09043,12043,FL,GLADES,26.95481,-81.19082,FLORIDA
09045,12045,FL,GULF,29.907257,-85.256537,FLORIDA
09047,12047,FL,HAMILTON,30.491226,-82.951069,FLORIDA
09049,12049,FL,HARDEE,27.492846,-81.82158,FLORIDA
09051,12051,FL,HENDRY,26.539967,-81.152114,FLORIDA
09053,12053,FL,HERNANDO,28.573043,-82.466227,FLORIDA
09055,12055,FL,HIGHLANDS,27.342627,-81.340921,FLORIDA
09057,12057,FL,HILLSBOROUGH,27.906607,-82.349719,FLORIDA
09059,12059,FL,HOLMES,30.866222,-85.812959,FLORIDA
09061,12061,FL,INDIAN RIVER,27.700528,-80.574789,FLORIDA
09063,12063,FL,JACKSON,30.789249,-85.208814,FLORIDA
09065,12065,FL,JEFFERSON,30.424558,-83.890859,FLORIDA
09067,12067,FL,LAFAYETTE,29.990066,-83.17851,FLORIDA
09069,12069,FL,LAKE,28.764113,-81.712282,FLORIDA
09071,12071,FL,LEE,26.559035,-81.891994,FLORIDA
09073,12073,FL,LEON,30.45931,-84.2778,FLORIDA
09075,12075,FL,LEVY,29.284457,-82.783462,FLORIDA
09077,12077,FL,LIBERTY,30.259849,-84.86858,FLORIDA
09079,12079,FL,MADISON,30.447233,-83.470416,FLORIDA
09081,12081,FL,MANATEE,27.481682,-82.368767,FLORIDA
09083,12083,FL,MARION,29.202805,-82.0431,FLORIDA
09085,12085,FL,MARTIN,27.083604,-80.398201,FLORIDA
09087,12087,FL,MONROE,24.535414,-82.00692,FLORIDA
09089,12089,FL,NASSAU,30.605926,-81.764929,FLORIDA
09091,12091,FL,OKALOOSA,30.665851,-86.594187,FLORIDA
09093,12093,FL,OKEECHOBEE,27.385592,-80.887388,FLORIDA
09095,12095,FL,ORANGE,28.514435,-81.323295,FLORIDA
09097,12097,FL,OSCEOLA,28.059027,-81.139312,FLORIDA
09099,12099,FL,PALM BEACH,26.649124,-80.448374,FLORIDA
09101,12101,FL,PASCO,28.307465,-82.464584,FLORIDA
09103,12103,FL,PINELLAS,27.903122,-82.739518,FLORIDA
09105,12105,FL,POLK,27.953115,-81.692783,FLORIDA
09107,12107,FL,PUTNAM,29.606006,-81.740894,FLORIDA
09109,12109,FL,ST. JOHNS,29.890644,-81.383948,FLORIDA
09111,12111,FL,ST. LUCIE,27.379812,-80.443537,FLORIDA
09113,12113,FL,SANTA ROSA,30.701838,-87.012762,FLORIDA
09115,12115,FL,SARASOTA,27.184386,-82.365835,FLORIDA
09117,12117,FL,SEMINOLE,28.690092,-81.131989,FLORIDA
09119,12119,FL,SUMTER,28.71431,-82.074703,FLORIDA
09121,12121,FL,SUWANNEE,30.189244,-82.992754,FLORIDA
09123,12123,FL,TAYLOR,30.009908,-83.609483,FLORIDA
09125,12125,FL,UNION,30.05428,-82.366918,FLORIDA
09127,12127,FL,VOLUSIA,29.057769,-81.161792,FLORIDA
09129,12129,FL,WAKULLA,30.140358,-84.375112,FLORIDA
09131,12131,FL,WALTON,30.631211,-86.176614,FLORIDA
09133,12133,FL,WASHINGTON,30.602217,-85.662797,FLORIDA
09205,,FL,BAY O,,,FLORIDA
09209,,FL,BREVRD O,,,FLORIDA
09211,,FL,BROWRD O,,,FLORIDA
09215,,FL,CHRLTE O,,,FLORIDA
09217,,FL,CITRUS O,,,FLORIDA
09221,,FL,COLIER O,,,FLORIDA
09225,,FL,DADE O,,,FLORIDA
09229,,FL,DIXIE O,,,FLORIDA
09231,,FL,DUVAL O,,,FLORIDA
09233,,FL,ESCMBA O,,,FLORIDA
09235,,FL,FLAGLR O,,,FLORIDA
09237,,FL,FRNKLN O,,,FLORIDA
09245,,FL,GULF O,,,FLORIDA
09253,,FL,HERNDO O,,,FLORIDA
09257,,FL,HLSBRH O,,,FLORIDA
09261,,FL,IND RV O,,,FLORIDA
09265,,FL,JEFRSN O,,,FLORIDA
09271,,FL,LEE O,,,FLORIDA
09275,,FL,LEVY O,,,FLORIDA
09281,,FL,MANATE O,,,FLORIDA
09285,,FL,MARTIN O,,,FLORIDA
09287,,FL,MONROE O,,,FLORIDA
09289,,FL,NASSAU O,,,FLORIDA
09291,,FL,OKLOSA O,,,FLORIDA
09299,,FL,PLM BH O,,,FLORIDA
09301,,FL,PASCO O,,,FLORIDA
09303,,FL,PINELS O,,,FLORIDA
09309,,FL,ST JHN O,,,FLORIDA
09311,,FL,ST LCE O,,,FLORIDA
09313,,FL,SNT RS O,,,FLORIDA
09315,,FL,SARSTA O,,,FLORIDA
09323,,FL,TAYLOR O,,,FLORIDA
09327,,FL,VOLSIA O,,,FLORIDA
09329,,FL,WAKULA O,,,FLORIDA
09331,,FL,WALTON O,,,FLORIDA
10001,13001,GA,APPLING,31.739712,-82.290103,GEORGIA
10003,13003,GA,ATKINSON,31.296806,-82.878151,GEORGIA
10005,13005,GA,BACON,31.55021,-82.451433,GEORGIA
10007,13007,GA,BAKER,31.31958,-84.454881,GEORGIA
10009,13009,GA,BALDWIN,33.05949,-83.255457,GEORGIA
10011,13011,GA,BANKS,34.351922,-83.498441,GEORGIA
10013,13013,GA,BARROW,33.992009,-83.712303,GEORGIA
10015,13015,GA,BARTOW,34.240917,-84.838188,GEORGIA
10017,13017,GA,BEN HILL,31.740775,-83.14719,GEORGIA
10019,13019,GA,BERRIEN,31.288652,-83.22787,GEORGIA
10021,13021,GA,BIBB,32.808845,-83.694194,GEORGIA
10023,13023,GA,BLECKLEY,32.435403,-83.331717,GEORGIA
10025,13025,GA,BRANTLEY,31.197334,-81.982978,GEORGIA
10027,13027,GA,BROOKS,30.822934,-83.581905,GEORGIA
10029,13029,GA,BRYAN,32.017969,-81.438543,GEORGIA
10031,13031,GA,BULLOCH,32.391711,-81.744021,GEORGIA
10033,13033,GA,BURKE,33.060181,-82.000164,GEORGIA
10035,13035,GA,BUTTS,33.290355,-83.958221,GEORGIA
10037,13037,GA,CALHOUN,31.521279,-84.62629,GEORGIA
10039,13039,GA,CAMDEN,30.913347,-81.642001,GEORGIA
10043,13043,GA,CANDLER,32.40395,-82.071266,GEORGIA
10045,13045,GA,CARROLL,33.582237,-85.080527,GEORGIA
10047,13047,GA,CATOOSA,34.900218,-85.139386,GEORGIA
10049,13049,GA,CHARLTON,30.779904,-82.139644,GEORGIA
10051,13051,GA,CHATHAM,31.98041,-81.085196,GEORGIA
10053,13053,GA,CHATTAHOOCHEE,32.347445,-84.788021,GEORGIA
10055,13055,GA,CHATTOOGA,34.474178,-85.345289,GEORGIA
10057,13057,GA,CHEROKEE,34.244317,-84.475057,GEORGIA
10059,13059,GA,CLARKE,33.952185,-83.367152,GEORGIA
10061,13061,GA,CLAY,31.619831,-84.992583,GEORGIA
10063,13063,GA,CLAYTON,33.542686,-84.355573,GEORGIA
10065,13065,GA,CLINCH,30.917653,-82.702614,GEORGIA
10067,13067,GA,COBB,33.93994,-84.574166,GEORGIA
10069,13069,GA,COFFEE,31.549245,-82.844938,GEORGIA
10071,13071,GA,COLQUITT,31.189707,-83.769773,GEORGIA
10073,13073,GA,COLUMBIA,33.547631,-82.252296,GEORGIA
10075,13075,GA,COOK,31.152516,-83.429445,GEORGIA
10077,13077,GA,COWETA,33.352897,-84.762138,GEORGIA
10079,13079,GA,CRAWFORD,32.709428,-83.979187,GEORGIA
10081,13081,GA,CRISP,31.915149,-83.753531,GEORGIA
10083,13083,GA,DADE,34.852424,-85.506201,GEORGIA
10085,13085,GA,DAWSON,34.442842,-84.173284,GEORGIA
10087,13087,GA,DECATUR,30.880655,-84.584144,GEORGIA
10089,13089,GA,DEKALB,33.770661,-84.226343,GEORGIA
10091,13091,GA,DODGE,32.164349,-83.167866,GEORGIA
10093,13093,GA,DOOLY,32.151995,-83.807167,GEORGIA
10095,13095,GA,DOUGHERTY,31.532588,-84.20904,GEORGIA
10097,13097,GA,DOUGLAS,33.701242,-84.767314,GEORGIA
10099,13099,GA,EARLY,31.324191,-84.906723,GEORGIA
10101,13101,GA,ECHOLS,30.7085,-82.836132,GEORGIA
10103,13103,GA,EFFINGHAM,32.361711,-81.343337,GEORGIA
10105,13105,GA,ELBERT,34.116455,-82.841834,GEORGIA
10107,13107,GA,EMANUEL,32.5911,-82.299763,GEORGIA
10109,13109,GA,EVANS,32.153083,-81.890153,GEORGIA
10111,13111,GA,FANNIN,34.866543,-84.317331,GEORGIA
10113,13113,GA,FAYETTE,33.412717,-84.493941,GEORGIA
10115,13115,GA,FLOYD,34.263692,-85.213685,GEORGIA
10117,13117,GA,FORSYTH,34.225143,-84.127435,GEORGIA
10119,13119,GA,FRANKLIN,34.375081,-83.228064,GEORGIA
10121,13121,GA,FULTON,33.790034,-84.468182,GEORGIA
10123,13123,GA,GILMER,34.690506,-84.454624,GEORGIA
10125,13125,GA,GLASCOCK,33.227491,-82.606913,GEORGIA
10127,13127,GA,GLYNN,31.21271,-81.49645,GEORGIA
10129,13129,GA,GORDON,34.509667,-84.873862,GEORGIA
10131,13131,GA,GRADY,30.875903,-84.245008,GEORGIA
10133,13133,GA,GREENE,33.57674,-83.166613,GEORGIA
10135,13135,GA,GWINNETT,33.959146,-84.023087,GEORGIA
10137,13137,GA,HABERSHAM,34.634392,-83.525875,GEORGIA
10139,13139,GA,HALL,34.317569,-83.8185,GEORGIA
10141,13141,GA,HANCOCK,33.26922,-83.000465,GEORGIA
10143,13143,GA,HARALSON,33.795165,-85.220063,GEORGIA
10145,13145,GA,HARRIS,32.731549,-84.912432,GEORGIA
10147,13147,GA,HART,34.348733,-82.96329,GEORGIA
10149,13149,GA,HEARD,33.291347,-85.137886,GEORGIA
10151,13151,GA,HENRY,33.452947,-84.154021,GEORGIA
10153,13153,GA,HOUSTON,32.458381,-83.662856,GEORGIA
10155,13155,GA,IRWIN,31.604306,-83.277037,GEORGIA
10157,13157,GA,JACKSON,34.130881,-83.562566,GEORGIA
10159,13159,GA,JASPER,33.318169,-83.690142,GEORGIA
10161,13161,GA,JEFF DAVIS,31.811615,-82.636825,GEORGIA
10163,13163,GA,JEFFERSON,33.058176,-82.420004,GEORGIA
10165,13165,GA,JENKINS,32.794563,-81.971524,GEORGIA
10167,13167,GA,JOHNSON,32.694584,-82.66397,GEORGIA
10169,13169,GA,JONES,33.020226,-83.562339,GEORGIA
10171,13171,GA,LAMAR,33.07446,-84.146721,GEORGIA
10173,13173,GA,LANIER,31.038197,-83.063164,GEORGIA
10175,13175,GA,LAURENS,32.39322,-82.926317,GEORGIA
10177,13177,GA,LEE,31.818419,-84.146681,GEORGIA
10179,13179,GA,LIBERTY,31.807458,-81.457871,GEORGIA
10181,13181,GA,LINCOLN,33.792151,-82.448299,GEORGIA
10183,13183,GA,LONG,31.749563,-81.74287,GEORGIA
10185,13185,GA,LOWNDES,30.833145,-83.268995,GEORGIA
10187,13187,GA,LUMPKIN,34.56814,-83.998925,GEORGIA
10189,13189,GA,MCDUFFIE,33.479623,-82.478733,GEORGIA
10191,13191,GA,MCINTOSH,31.488592,-81.37246,GEORGIA
10193,13193,GA,MACON,32.362686,-84.051231,GEORGIA
10195,13195,GA,MADISON,34.128526,-83.203737,GEORGIA
10197,13197,GA,MARION,32.359532,-84.529567,GEORGIA
10199,13199,GA,MERIWETHER,33.029267,-84.667058,GEORGIA
10201,13201,GA,MILLER,31.162931,-84.730398,GEORGIA
10205,13205,GA,MITCHELL,31.228997,-84.192038,GEORGIA
10207,13207,GA,MONROE,33.017435,-83.922938,GEORGIA
10209,13209,GA,MONTGOMERY,32.172108,-82.533349,GEORGIA
10211,13211,GA,MORGAN,33.593474,-83.491049,GEORGIA
10213,13213,GA,MURRAY,34.797097,-84.73799,GEORGIA
10215,13215,GA,MUSCOGEE,32.510197,-84.874946,GEORGIA
10217,13217,GA,NEWTON,33.544041,-83.855184,GEORGIA
10219,13219,GA,OCONEE,33.834125,-83.437728,GEORGIA
10221,13221,GA,OGLETHORPE,33.866806,-83.074081,GEORGIA
10223,13223,GA,PAULDING,33.921026,-84.867162,GEORGIA
10225,13225,GA,PEACH,32.571324,-83.831978,GEORGIA
10227,13227,GA,PICKENS,34.456804,-84.490333,GEORGIA
10229,13229,GA,PIERCE,31.353988,-82.210427,GEORGIA
10231,13231,GA,PIKE,33.090768,-84.386627,GEORGIA
10233,13233,GA,POLK,33.996015,-85.188338,GEORGIA
10235,13235,GA,PULASKI,32.238803,-83.481845,GEORGIA
10237,13237,GA,PUTNAM,33.32106,-83.37179,GEORGIA
10239,13239,GA,QUITMAN,31.862948,-85.004801,GEORGIA
10241,13241,GA,RABUN,34.883949,-83.404859,GEORGIA
10243,13243,GA,RANDOLPH,31.762651,-84.752311,GEORGIA
10245,13245,GA,RICHMOND,33.361487,-82.074998,GEORGIA
10247,13247,GA,ROCKDALE,33.652081,-84.02637,GEORGIA
10249,13249,GA,SCHLEY,32.263444,-84.322708,GEORGIA
10251,13251,GA,SCREVEN,32.744751,-81.617585,GEORGIA
10253,13253,GA,SEMINOLE,30.933894,-84.867592,GEORGIA
10255,13255,GA,SPALDING,33.262389,-84.286067,GEORGIA
10257,13257,GA,STEPHENS,34.552914,-83.290216,GEORGIA
10259,13259,GA,STEWART,32.073225,-84.834912,GEORGIA
10261,13261,GA,SUMTER,32.042197,-84.204257,GEORGIA
10263,13263,GA,TALBOT,32.704603,-84.530029,GEORGIA
10265,13265,GA,TALIAFERRO,33.559319,-82.875272,GEORGIA
10267,13267,GA,TATTNALL,32.043768,-82.059208,GEORGIA
10269,13269,GA,TAYLOR,32.554667,-84.251426,GEORGIA
10271,13271,GA,TELFAIR,31.913639,-82.931062,GEORGIA
10273,13273,GA,TERRELL,31.777191,-84.439446,GEORGIA
10275,13275,GA,THOMAS,30.86462,-83.919812,GEORGIA
10277,13277,GA,TIFT,31.457003,-83.525931,GEORGIA
10279,13279,GA,TOOMBS,32.117812,-82.330626,GEORGIA
10281,13281,GA,TOWNS,34.902529,-83.732264,GEORGIA
10283,13283,GA,TREUTLEN,32.409586,-82.570882,GEORGIA
10285,13285,GA,TROUP,33.034482,-85.02836,GEORGIA
10287,13287,GA,TURNER,31.7248,-83.620319,GEORGIA
10289,13289,GA,TWIGGS,32.665847,-83.425879,GEORGIA
10291,13291,GA,UNION,34.833333,-83.989257,GEORGIA
10293,13293,GA,UPSON,32.881837,-84.292283,GEORGIA
10295,13295,GA,WALKER,34.735802,-85.305456,GEORGIA
10297,13297,GA,WALTON,33.783887,-83.731829,GEORGIA
10299,13299,GA,WARE,31.050881,-82.421507,GEORGIA
10301,13301,GA,WARREN,33.419169,-82.688012,GEORGIA
10303,13303,GA,WASHINGTON,32.971843,-82.798112,GEORGIA
10305,13305,GA,WAYNE,31.547845,-81.912376,GEORGIA
10307,13307,GA,WEBSTER,32.046691,-84.553828,GEORGIA
10309,13309,GA,WHEELER,32.105258,-82.733849,GEORGIA
10311,13311,GA,WHITE,34.643776,-83.743417,GEORGIA
10313,13313,GA,WHITFIELD,34.801726,-84.968541,GEORGIA
10315,13315,GA,WILCOX,31.962717,-83.438262,GEORGIA
10317,13317,GA,WILKES,33.779031,-82.747921,GEORGIA
10319,13319,GA,WILKINSON,32.804266,-83.175512,GEORGIA
10321,13321,GA,WORTH,31.551773,-83.84996,GEORGIA
10329,,GA,BRYAN O,,,GEORGIA
10339,,GA,CAMDEN O,,,GEORGIA
10351,,GA,CHATHM O,,,GEORGIA
10427,,GA,GLYNN O,,,GEORGIA
10479,,GA,LIBRTY O,,,GEORGIA
10491,,GA,MCINTH O,,,GEORGIA
11001,16001,ID,ADA,43.451477,-116.244376,IDAHO
11003,16003,ID,ADAMS,44.877004,-116.461624,IDAHO
11005,16005,ID,BANNOCK,42.692921,-112.228982,IDAHO
11007,16007,ID,BEAR LAKE,42.285892,-111.327517,IDAHO
11009,16009,ID,BENEWAH,47.218451,-116.633541,IDAHO
11011,16011,ID,BINGHAM,43.216357,-112.399206,IDAHO
11013,16013,ID,BLAINE,43.394192,-113.955371,IDAHO
11015,16015,ID,BOISE,43.987275,-115.71511,IDAHO
11017,16017,ID,BONNER,48.324628,-116.627452,IDAHO
11019,16019,ID,BONNEVILLE,43.395171,-111.621878,IDAHO
11021,16021,ID,BOUNDARY,48.773133,-116.524673,IDAHO
11023,16023,ID,BUTTE,43.685101,-113.177631,IDAHO
11025,16025,ID,CAMAS,43.502733,-114.772066,IDAHO
11027,16027,ID,CANYON,43.623051,-116.708527,IDAHO
11029,16029,ID,CARIBOU,42.786072,-111.544273,IDAHO
11031,16031,ID,CASSIA,42.282313,-113.626328,IDAHO
11033,16033,ID,CLARK,44.290218,-112.354613,IDAHO
11035,16035,ID,CLEARWATER,46.67257,-115.6535,IDAHO
11037,16037,ID,CUSTER,44.273351,-114.252267,IDAHO
11039,16039,ID,ELMORE,43.394698,-115.471205,IDAHO
11041,16041,ID,FRANKLIN,42.173609,-111.822965,IDAHO
11043,16043,ID,FREMONT,44.218091,-111.484429,IDAHO
11045,16045,ID,GEM,44.061473,-116.398784,IDAHO
11047,16047,ID,GOODING,42.973185,-114.82142,IDAHO
11049,16049,ID,IDAHO,45.849644,-115.467337,IDAHO
11051,16051,ID,JEFFERSON,43.796965,-112.318588,IDAHO
11053,16053,ID,JEROME,42.691395,-114.262086,IDAHO
11055,16055,ID,KOOTENAI,47.677113,-116.694918,IDAHO
11057,16057,ID,LATAH,46.81892,-116.730974,IDAHO
11059,16059,ID,LEMHI,44.928506,-113.887042,IDAHO
11061,16061,ID,LEWIS,46.236328,-116.42376,IDAHO
11063,16063,ID,LINCOLN,42.986181,-114.153899,IDAHO
11065,16065,ID,MADISON,43.788614,-111.656993,IDAHO
11067,16067,ID,MINIDOKA,42.857211,-113.63984,IDAHO
11069,16069,ID,NEZ PERCE,46.333791,-116.760909,IDAHO
11071,16071,ID,ONEIDA,42.183895,-112.520449,IDAHO
11073,16073,ID,OWYHEE,42.572851,-116.18969,IDAHO
11075,16075,ID,PAYETTE,44.00243,-116.750238,IDAHO
11077,16077,ID,POWER,42.694126,-112.844407,IDAHO
11079,16079,ID,SHOSHONE,47.347694,-115.885092,IDAHO
11081,16081,ID,TETON,43.760994,-111.211765,IDAHO
11083,16083,ID,TWIN FALLS,42.352309,-114.665639,IDAHO
11085,16085,ID,VALLEY,44.85596,-115.618061,IDAHO
11087,16087,ID,WASHINGTON,44.448223,-116.797792,IDAHO
11089,,ID,YLSTN NP,,,IDAHO
12001,17001,IL,ADAMS,39.986052,-91.194961,ILLINOIS
12003,17003,IL,ALEXANDER,37.183658,-89.349516,ILLINOIS
12005,17005,IL,BOND,38.885924,-89.436592,ILLINOIS
12007,17007,IL,BOONE,42.318983,-88.824295,ILLINOIS
12009,17009,IL,BROWN,39.962069,-90.750309,ILLINOIS
12011,17011,IL,BUREAU,41.401304,-89.528377,ILLINOIS
12013,17013,IL,CALHOUN,39.164262,-90.666295,ILLINOIS
12015,17015,IL,CARROLL,42.0709,-89.924189,ILLINOIS
12017,17017,IL,CASS,39.969202,-90.245704,ILLINOIS
12019,17019,IL,CHAMPAIGN,40.13898,-88.196996,ILLINOIS
12021,17021,IL,CHRISTIAN,39.545524,-89.279593,ILLINOIS
12023,17023,IL,CLARK,39.332364,-87.791687,ILLINOIS
12025,17025,IL,CLAY,38.746832,-88.482344,ILLINOIS
12027,17027,IL,CLINTON,38.606295,-89.426228,ILLINOIS
12029,17029,IL,COLES,39.51368,-88.220782,ILLINOIS
12031,17031,IL,COOK,41.894294,-87.645455,ILLINOIS
12033,17033,IL,CRAWFORD,39.002769,-87.760621,ILLINOIS
12035,17035,IL,CUMBERLAND,39.273121,-88.240619,ILLINOIS
12037,17037,IL,DEKALB,41.894612,-88.768991,ILLINOIS
12039,17039,IL,DE WITT,40.181499,-88.901853,ILLINOIS
12041,17041,IL,DOUGLAS,39.766078,-88.222866,ILLINOIS
12043,17043,IL,DUPAGE,41.852058,-88.086038,ILLINOIS
12045,17045,IL,EDGAR,39.679037,-87.74711,ILLINOIS
12047,17047,IL,EDWARDS,38.417095,-88.047941,ILLINOIS
12049,17049,IL,EFFINGHAM,39.047945,-88.592849,ILLINOIS
12051,17051,IL,FAYETTE,39.001125,-89.017923,ILLINOIS
12053,17053,IL,FORD,40.596539,-88.224588,ILLINOIS
12055,17055,IL,FRANKLIN,37.991848,-88.926246,ILLINOIS
12057,17057,IL,FULTON,40.46524,-90.202269,ILLINOIS
12059,17059,IL,GALLATIN,37.768677,-88.227964,ILLINOIS
12061,17061,IL,GREENE,39.355444,-90.387757,ILLINOIS
12063,17063,IL,GRUNDY,41.29241,-88.401054,ILLINOIS
12065,17065,IL,HAMILTON,38.085226,-88.539005,ILLINOIS
12067,17067,IL,HANCOCK,40.405792,-91.167987,ILLINOIS
12069,17069,IL,HARDIN,37.517852,-88.266148,ILLINOIS
12071,17071,IL,HENDERSON,40.814471,-90.941246,ILLINOIS
12073,17073,IL,HENRY,41.350021,-90.130838,ILLINOIS
12075,17075,IL,IROQUOIS,40.748867,-87.833601,ILLINOIS
12077,17077,IL,JACKSON,37.786096,-89.381212,ILLINOIS
12079,17079,IL,JASPER,39.004874,-88.150763,ILLINOIS
12081,17081,IL,JEFFERSON,38.30078,-88.92421,ILLINOIS
12083,17083,IL,JERSEY,39.080192,-90.361365,ILLINOIS
12085,17085,IL,JO DAVIESS,42.362391,-90.21147,ILLINOIS
12087,17087,IL,JOHNSON,37.460709,-88.882131,ILLINOIS
12089,17089,IL,KANE,41.939594,-88.42804,ILLINOIS
12091,17091,IL,KANKAKEE,41.13951,-87.861117,ILLINOIS
12093,17093,IL,KENDALL,41.58814,-88.430626,ILLINOIS
12095,17095,IL,KNOX,40.930941,-90.213761,ILLINOIS
12097,17097,IL,LAKE,42.326441,-87.435976,ILLINOIS
12099,17099,IL,LASALLE,41.343341,-88.885931,ILLINOIS
12101,17101,IL,LAWRENCE,38.718954,-87.730221,ILLINOIS
12103,17103,IL,LEE,41.747442,-89.299351,ILLINOIS
12105,17105,IL,LIVINGSTON,40.894376,-88.552852,ILLINOIS
12107,17107,IL,LOGAN,40.129122,-89.365307,ILLINOIS
12109,17109,IL,MCDONOUGH,40.455808,-90.678954,ILLINOIS
12111,17111,IL,MCHENRY,42.324298,-88.452245,ILLINOIS
12113,17113,IL,MCLEAN,40.494559,-88.844539,ILLINOIS
12115,17115,IL,MACON,39.860237,-88.961529,ILLINOIS
12117,17117,IL,MACOUPIN,39.2659,-89.926344,ILLINOIS
12119,17119,IL,MADISON,38.827082,-89.900195,ILLINOIS
12121,17121,IL,MARION,38.648106,-88.920488,ILLINOIS
12123,17123,IL,MARSHALL,41.031119,-89.342371,ILLINOIS
12125,17125,IL,MASON,40.236993,-89.913575,ILLINOIS
12127,17127,IL,MASSAC,37.216119,-88.705658,ILLINOIS
12129,17129,IL,MENARD,40.022569,-89.794133,ILLINOIS
12131,17131,IL,MERCER,41.204791,-90.741433,ILLINOIS
12133,17133,IL,MONROE,38.277983,-90.179078,ILLINOIS
12135,17135,IL,MONTGOMERY,39.228093,-89.478004,ILLINOIS
12137,17137,IL,MORGAN,39.7183,-90.202543,ILLINOIS
12139,17139,IL,MOULTRIE,39.636896,-88.625726,ILLINOIS
12141,17141,IL,OGLE,42.041884,-89.320176,ILLINOIS
12143,17143,IL,PEORIA,40.785995,-89.767106,ILLINOIS
12145,17145,IL,PERRY,38.084381,-89.368525,ILLINOIS
12147,17147,IL,PIATT,40.009056,-88.592328,ILLINOIS
12149,17149,IL,PIKE,39.625106,-90.889034,ILLINOIS
12151,17151,IL,POPE,37.417169,-88.542374,ILLINOIS
12153,17153,IL,PULASKI,37.215615,-89.127755,ILLINOIS
12155,17155,IL,PUTNAM,41.198961,-89.298347,ILLINOIS
12157,17157,IL,RANDOLPH,38.056515,-89.82121,ILLINOIS
12159,17159,IL,RICHLAND,38.711552,-88.085698,ILLINOIS
12161,17161,IL,ROCK ISLAND,41.468404,-90.572203,ILLINOIS
12163,17163,IL,ST. CLAIR,38.470198,-89.928546,ILLINOIS
12165,17165,IL,SALINE,37.751508,-88.545024,ILLINOIS
12167,17167,IL,SANGAMON,39.757258,-89.662032,ILLINOIS
12169,17169,IL,SCHUYLER,40.156905,-90.613464,ILLINOIS
12171,17171,IL,SCOTT,39.637002,-90.477771,ILLINOIS
12173,17173,IL,SHELBY,39.384926,-88.798862,ILLINOIS
12175,17175,IL,STARK,41.096908,-89.797411,ILLINOIS
12177,17177,IL,STEPHENSON,42.349726,-89.665994,ILLINOIS
12179,17179,IL,TAZEWELL,40.508074,-89.51626,ILLINOIS
12181,17181,IL,UNION,37.485644,-89.244638,ILLINOIS
12183,17183,IL,VERMILION,40.186754,-87.726778,ILLINOIS
12185,17185,IL,WABASH,38.445821,-87.839167,ILLINOIS
12187,17187,IL,WARREN,40.850441,-90.620223,ILLINOIS
12189,17189,IL,WASHINGTON,38.35314,-89.417187,ILLINOIS
12191,17191,IL,WAYNE,38.431857,-88.43243,ILLINOIS
12193,17193,IL,WHITE,38.087372,-88.178585,ILLINOIS
12195,17195,IL,WHITESIDE,41.750571,-89.910957,ILLINOIS
12197,17197,IL,WILL,41.448474,-87.978456,ILLINOIS
12199,17199,IL,WILLIAMSON,37.730353,-88.930018,ILLINOIS
12201,17201,IL,WINNEBAGO,42.337396,-89.161205,ILLINOIS
12203,17203,IL,WOODFORD,40.789789,-89.210607,ILLINOIS
12512,,IL,LK MICH,,,ILLINOIS
13001,18001,IN,ADAMS,40.745733,-84.93613,INDIANA
13003,18003,IN,ALLEN,41.091855,-85.07223,INDIANA
13005,18005,IN,BARTHOLOMEW,39.205843,-85.897999,INDIANA
13007,18007,IN,BENTON,40.600983,-87.31479,INDIANA
13009,18009,IN,BLACKFORD,40.472672,-85.32373,INDIANA
13011,18011,IN,BOONE,40.050892,-86.469014,INDIANA
13013,18013,IN,BROWN,39.192864,-86.239728,INDIANA
13015,18015,IN,CARROLL,40.58498,-86.565141,INDIANA
13017,18017,IN,CASS,40.753799,-86.355168,INDIANA
13019,18019,IN,CLARK,38.476217,-85.711122,INDIANA
13021,18021,IN,CLAY,39.393951,-87.115837,INDIANA
13023,18023,IN,CLINTON,40.305944,-86.477567,INDIANA
13025,18025,IN,CRAWFORD,38.289433,-86.440871,INDIANA
13027,18027,IN,DAVIESS,38.696089,-87.076944,INDIANA
13029,18029,IN,DEARBORN,39.14832,-84.973498,INDIANA
13031,18031,IN,DECATUR,39.30598,-85.499831,INDIANA
13033,18033,IN,DEKALB,41.401189,-85.000185,INDIANA
13035,18035,IN,DELAWARE,40.227543,-85.399262,INDIANA
13037,18037,IN,DUBOIS,38.373344,-86.873385,INDIANA
13039,18039,IN,ELKHART,41.600693,-85.863986,INDIANA
13041,18041,IN,FAYETTE,39.639655,-85.185031,INDIANA
13043,18043,IN,FLOYD,38.317936,-85.911474,INDIANA
13045,18045,IN,FOUNTAIN,40.121237,-87.234872,INDIANA
13047,18047,IN,FRANKLIN,39.409762,-85.066964,INDIANA
13049,18049,IN,FULTON,41.050384,-86.265006,INDIANA
13051,18051,IN,GIBSON,38.317398,-87.580523,INDIANA
13053,18053,IN,GRANT,40.515758,-85.654946,INDIANA
13055,18055,IN,GREENE,39.047147,-87.004771,INDIANA
13057,18057,IN,HAMILTON,40.05365,-86.021726,INDIANA
13059,18059,IN,HANCOCK,39.82253,-85.773162,INDIANA
13061,18061,IN,HARRISON,38.18644,-86.103681,INDIANA
13063,18063,IN,HENDRICKS,39.768963,-86.509908,INDIANA
13065,18065,IN,HENRY,39.929591,-85.397363,INDIANA
13067,18067,IN,HOWARD,40.483537,-86.114118,INDIANA
13069,18069,IN,HUNTINGTON,40.826394,-85.478597,INDIANA
13071,18071,IN,JACKSON,38.911957,-86.042516,INDIANA
13073,18073,IN,JASPER,41.017688,-87.118814,INDIANA
13075,18075,IN,JAY,40.434972,-85.00338,INDIANA
13077,18077,IN,JEFFERSON,38.783604,-85.44009,INDIANA
13079,18079,IN,JENNINGS,38.996229,-85.628103,INDIANA
13081,18081,IN,JOHNSON,39.495986,-86.0946,INDIANA
13083,18083,IN,KNOX,38.688391,-87.420354,INDIANA
13085,18085,IN,KOSCIUSKO,41.244293,-85.861575,INDIANA
13087,18087,IN,LAGRANGE,41.642468,-85.426302,INDIANA
13089,18089,IN,LAKE,41.472247,-87.374337,INDIANA
13091,18091,IN,LAPORTE,41.549013,-86.744739,INDIANA
13093,18093,IN,LAWRENCE,38.839815,-86.48782,INDIANA
13095,18095,IN,MADISON,40.166203,-85.722454,INDIANA
13097,18097,IN,MARION,39.782976,-86.135794,INDIANA
13099,18099,IN,MARSHALL,41.325003,-86.269036,INDIANA
13101,18101,IN,MARTIN,38.705322,-86.801847,INDIANA
13103,18103,IN,MIAMI,40.772881,-86.044258,INDIANA
13105,18105,IN,MONROE,39.160729,-86.52331,INDIANA
13107,18107,IN,MONTGOMERY,40.040296,-86.892715,INDIANA
13109,18109,IN,MORGAN,39.482646,-86.447457,INDIANA
13111,18111,IN,NEWTON,40.962399,-87.402172,INDIANA
13113,18113,IN,NOBLE,41.40468,-85.417271,INDIANA
13115,18115,IN,OHIO,38.940527,-84.964299,INDIANA
13117,18117,IN,ORANGE,38.547381,-86.489257,INDIANA
13119,18119,IN,OWEN,39.317339,-86.838845,INDIANA
13121,18121,IN,PARKE,39.77425,-87.19695,INDIANA
13123,18123,IN,PERRY,38.081436,-86.62654,INDIANA
13125,18125,IN,PIKE,38.397898,-87.232532,INDIANA
13127,18127,IN,PORTER,41.509915,-87.071313,INDIANA
13129,18129,IN,POSEY,38.027614,-87.868653,INDIANA
13131,18131,IN,PULASKI,41.045272,-86.692538,INDIANA
13133,18133,IN,PUTNAM,39.665548,-86.853373,INDIANA
13135,18135,IN,RANDOLPH,40.164079,-85.00579,INDIANA
13137,18137,IN,RIPLEY,39.100226,-85.260494,INDIANA
13139,18139,IN,RUSH,39.622357,-85.466403,INDIANA
13141,18141,IN,ST. JOSEPH,41.617699,-86.288159,INDIANA
13143,18143,IN,SCOTT,38.679431,-85.751898,INDIANA
13145,18145,IN,SHELBY,39.524135,-85.792174,INDIANA
13147,18147,IN,SPENCER,38.009697,-87.010375,INDIANA
13149,18149,IN,STARKE,41.284478,-86.644636,INDIANA
13151,18151,IN,STEUBEN,41.643467,-85.002405,INDIANA
13153,18153,IN,SULLIVAN,39.089225,-87.415843,INDIANA
13155,18155,IN,SWITZERLAND,38.825854,-85.029681,INDIANA
13157,18157,IN,TIPPECANOE,40.389133,-86.893554,INDIANA
13159,18159,IN,TIPTON,40.310229,-86.056207,INDIANA
13161,18161,IN,UNION,39.623111,-84.925152,INDIANA
13163,18163,IN,VANDERBURGH,38.02007,-87.586166,INDIANA
13165,18165,IN,VERMILLION,39.854045,-87.462071,INDIANA
13167,18167,IN,VIGO,39.429143,-87.390375,INDIANA
13169,18169,IN,WABASH,40.843747,-85.795192,INDIANA
13171,18171,IN,WARREN,40.352658,-87.375847,INDIANA
13173,18173,IN,WARRICK,38.097728,-87.272049,INDIANA
13175,18175,IN,WASHINGTON,38.600613,-86.104751,INDIANA
13177,18177,IN,WAYNE,39.863091,-85.006735,INDIANA
13179,18179,IN,WELLS,40.735273,-85.212974,INDIANA
13181,18181,IN,WHITE,40.75095,-86.864293,INDIANA
13183,18183,IN,WHITLEY,41.136426,-85.501892,INDIANA
13513,,IN,LK MICH,,,INDIANA
14001,19001,IA,ADAIR,41.328528,-94.478164,IOWA
14003,19003,IA,ADAMS,41.021656,-94.696906,IOWA
14005,19005,IA,ALLAMAKEE,43.274964,-91.382751,IOWA
14007,19007,IA,APPANOOSE,40.744296,-92.873061,IOWA
14009,19009,IA,AUDUBON,41.679178,-94.904312,IOWA
14011,19011,IA,BENTON,42.092547,-92.05763,IOWA
14013,19013,IA,BLACK HAWK,42.471541,-92.308033,IOWA
14015,19015,IA,BOONE,42.038642,-93.938358,IOWA
14017,19017,IA,BREMER,42.780895,-92.327356,IOWA
14019,19019,IA,BUCHANAN,42.470328,-91.838666,IOWA
14021,19021,IA,BUENA VISTA,42.741522,-95.141432,IOWA
14023,19023,IA,BUTLER,42.734708,-92.780066,IOWA
14025,19025,IA,CALHOUN,42.38617,-94.643683,IOWA
14027,19027,IA,CARROLL,42.039492,-94.867647,IOWA
14029,19029,IA,CASS,41.333824,-94.933302,IOWA
14031,19031,IA,CEDAR,41.77236,-91.132611,IOWA
14033,19033,IA,CERRO GORDO,43.074975,-93.250965,IOWA
14035,19035,IA,CHEROKEE,42.742737,-95.633262,IOWA
14037,19037,IA,CHICKASAW,43.059741,-92.31721,IOWA
14039,19039,IA,CLARKE,41.029191,-93.784096,IOWA
14041,19041,IA,CLAY,43.081224,-95.149875,IOWA
14043,19043,IA,CLAYTON,42.840985,-91.323576,IOWA
14045,19045,IA,CLINTON,41.898073,-90.534243,IOWA
14047,19047,IA,CRAWFORD,42.043119,-95.38909,IOWA
14049,19049,IA,DALLAS,41.685321,-94.040707,IOWA
14051,19051,IA,DAVIS,40.748089,-92.410345,IOWA
14053,19053,IA,DECATUR,40.736379,-93.78458,IOWA
14055,19055,IA,DELAWARE,42.472937,-91.366767,IOWA
14057,19057,IA,DES MOINES,40.915339,-91.186925,IOWA
14059,19059,IA,DICKINSON,43.389611,-95.196057,IOWA
14061,19061,IA,DUBUQUE,42.463481,-90.878771,IOWA
14063,19063,IA,EMMET,43.377984,-94.66937,IOWA
14065,19065,IA,FAYETTE,42.864122,-91.840376,IOWA
14067,19067,IA,FLOYD,43.052741,-92.787367,IOWA
14069,19069,IA,FRANKLIN,42.736549,-93.271425,IOWA
14071,19071,IA,FREMONT,40.74259,-95.599182,IOWA
14073,19073,IA,GREENE,42.042494,-94.388703,IOWA
14075,19075,IA,GRUNDY,42.403323,-92.790261,IOWA
14077,19077,IA,GUTHRIE,41.683573,-94.501272,IOWA
14079,19079,IA,HAMILTON,42.390768,-93.709198,IOWA
14081,19081,IA,HANCOCK,43.075411,-93.743697,IOWA
14083,19083,IA,HARDIN,42.390208,-93.241669,IOWA
14085,19085,IA,HARRISON,41.688584,-95.827149,IOWA
14087,19087,IA,HENRY,40.984802,-91.547259,IOWA
14089,19089,IA,HOWARD,43.365312,-92.321908,IOWA
14091,19091,IA,HUMBOLDT,42.782221,-94.202775,IOWA
14093,19093,IA,IDA,42.39186,-95.507421,IOWA
14095,19095,IA,IOWA,41.683918,-92.059123,IOWA
14097,19097,IA,JACKSON,42.164281,-90.574596,IOWA
14099,19099,IA,JASPER,41.685551,-93.054147,IOWA
14101,19101,IA,JEFFERSON,41.006384,-91.96744,IOWA
14103,19103,IA,JOHNSON,41.668877,-91.588924,IOWA
14105,19105,IA,JONES,42.125118,-91.116914,IOWA
14107,19107,IA,KEOKUK,41.331182,-92.167721,IOWA
14109,19109,IA,KOSSUTH,43.212478,-94.213983,IOWA
14111,19111,IA,LEE,40.647588,-91.477157,IOWA
14113,19113,IA,LINN,42.077951,-91.597674,IOWA
14115,19115,IA,LOUISA,41.218211,-91.256994,IOWA
14117,19117,IA,LUCAS,41.033344,-93.331467,IOWA
14119,19119,IA,LYON,43.38358,-96.207201,IOWA
14121,19121,IA,MADISON,41.330622,-94.015184,IOWA
14123,19123,IA,MAHASKA,41.330797,-92.636366,IOWA
14125,19125,IA,MARION,41.331455,-93.093849,IOWA
14127,19127,IA,MARSHALL,42.041691,-92.981452,IOWA
14129,19129,IA,MILLS,41.033703,-95.619101,IOWA
14131,19131,IA,MITCHELL,43.348564,-92.784466,IOWA
14133,19133,IA,MONONA,42.049432,-95.956566,IOWA
14135,19135,IA,MONROE,41.028847,-92.869642,IOWA
14137,19137,IA,MONTGOMERY,41.021735,-95.15779,IOWA
14139,19139,IA,MUSCATINE,41.483776,-91.118699,IOWA
14141,19141,IA,O'BRIEN,43.083746,-95.625624,IOWA
14143,19143,IA,OSCEOLA,43.378542,-95.633788,IOWA
14145,19145,IA,PAGE,40.73909,-95.14429,IOWA
14147,19147,IA,PALO ALTO,43.075337,-94.669055,IOWA
14149,19149,IA,PLYMOUTH,42.737585,-96.215864,IOWA
14151,19151,IA,POCAHONTAS,42.734033,-94.678279,IOWA
14153,19153,IA,POLK,41.684816,-93.568971,IOWA
14155,19155,IA,POTTAWATTAMIE,41.340184,-95.544905,IOWA
14157,19157,IA,POWESHIEK,41.684526,-92.522882,IOWA
14159,19159,IA,RINGGOLD,40.735334,-94.244251,IOWA
14161,19161,IA,SAC,42.387526,-95.105224,IOWA
14163,19163,IA,SCOTT,41.642079,-90.622289,IOWA
14165,19165,IA,SHELBY,41.679014,-95.308917,IOWA
14167,19167,IA,SIOUX,43.082646,-96.17801,IOWA
14169,19169,IA,STORY,42.037538,-93.466093,IOWA
14171,19171,IA,TAMA,42.074848,-92.529411,IOWA
14173,19173,IA,TAYLOR,40.737949,-94.697108,IOWA
14175,19175,IA,UNION,41.02855,-94.245091,IOWA
14177,19177,IA,VAN BUREN,40.754117,-91.952943,IOWA
14179,19179,IA,WAPELLO,41.031263,-92.409482,IOWA
14181,19181,IA,WARREN,41.332446,-93.568751,IOWA
14183,19183,IA,WASHINGTON,41.329401,-91.725052,IOWA
14185,19185,IA,WAYNE,40.739983,-93.332613,IOWA
14187,19187,IA,WEBSTER,42.433579,-94.175831,IOWA
14189,19189,IA,WINNEBAGO,43.378124,-93.743488,IOWA
14191,19191,IA,WINNESHIEK,43.292989,-91.850788,IOWA
14193,19193,IA,WOODBURY,42.39322,-96.053296,IOWA
14195,19195,IA,WORTH,43.373491,-93.248533,IOWA
14197,19197,IA,WRIGHT,42.733007,-93.734735,IOWA
15001,20001,KS,ALLEN,37.884228,-95.300945,KANSAS
15003,20003,KS,ANDERSON,38.215114,-95.292046,KANSAS
15005,20005,KS,ATCHISON,39.532544,-95.313397,KANSAS
15007,20007,KS,BARBER,37.222906,-98.685052,KANSAS
15009,20009,KS,BARTON,38.481239,-98.767837,KANSAS
15011,20011,KS,BOURBON,37.8561,-94.850928,KANSAS
15013,20013,KS,BROWN,39.825931,-95.569905,KANSAS
15015,20015,KS,BUTLER,37.773649,-96.83884,KANSAS
15017,20017,KS,CHASE,38.299475,-96.594029,KANSAS
15019,20019,KS,CHAUTAUQUA,37.154259,-96.245396,KANSAS
15021,20021,KS,CHEROKEE,37.169392,-94.845698,KANSAS
15023,20023,KS,CHEYENNE,39.789917,-101.727325,KANSAS
15025,20025,KS,CLARK,37.233831,-99.813869,KANSAS
15027,20027,KS,CLAY,39.344964,-97.168853,KANSAS
15029,20029,KS,CLOUD,39.487329,-97.64139,KANSAS
15031,20031,KS,COFFEY,38.23645,-95.729137,KANSAS
15033,20033,KS,COMANCHE,37.181442,-99.251293,KANSAS
15035,20035,KS,COWLEY,37.234507,-96.837247,KANSAS
15037,20037,KS,CRAWFORD,37.505821,-94.853897,KANSAS
15039,20039,KS,DECATUR,39.783542,-100.459708,KANSAS
15041,20041,KS,DICKINSON,38.867735,-97.157943,KANSAS
15043,20043,KS,DONIPHAN,39.788502,-95.147225,KANSAS
15045,20045,KS,DOUGLAS,38.896417,-95.290947,KANSAS
15047,20047,KS,EDWARDS,37.883595,-99.304746,KANSAS
15049,20049,KS,ELK,37.456026,-96.244642,KANSAS
15051,20051,KS,ELLIS,38.914597,-99.317313,KANSAS
15053,20053,KS,ELLSWORTH,38.700845,-98.205355,KANSAS
15055,20055,KS,FINNEY,38.049808,-100.739967,KANSAS
15057,20057,KS,FORD,37.688416,-99.884748,KANSAS
15059,20059,KS,FRANKLIN,38.558019,-95.278962,KANSAS
15061,20061,KS,GEARY,39.002156,-96.768037,KANSAS
15063,20063,KS,GOVE,38.917239,-100.48736,KANSAS
15065,20065,KS,GRAHAM,39.354972,-99.879894,KANSAS
15067,20067,KS,GRANT,37.547537,-101.299362,KANSAS
15069,20069,KS,GRAY,37.744513,-100.451716,KANSAS
15071,20071,KS,GREELEY,38.480404,-101.80597,KANSAS
15073,20073,KS,GREENWOOD,37.879347,-96.241732,KANSAS
15075,20075,KS,HAMILTON,37.995244,-101.793689,KANSAS
15077,20077,KS,HARPER,37.188184,-98.06659,KANSAS
15079,20079,KS,HARVEY,38.050144,-97.436706,KANSAS
15081,20081,KS,HASKELL,37.554979,-100.879952,KANSAS
15083,20083,KS,HODGEMAN,38.087493,-99.898407,KANSAS
15085,20085,KS,JACKSON,39.411145,-95.794485,KANSAS
15087,20087,KS,JEFFERSON,39.239644,-95.375314,KANSAS
15089,20089,KS,JEWELL,39.777002,-98.222618,KANSAS
15091,20091,KS,JOHNSON,38.883907,-94.82233,KANSAS
15093,20093,KS,KEARNY,37.994461,-101.308136,KANSAS
15095,20095,KS,KINGMAN,37.552951,-98.144529,KANSAS
15097,20097,KS,KIOWA,37.561231,-99.286539,KANSAS
15099,20099,KS,LABETTE,37.191468,-95.297473,KANSAS
15101,20101,KS,LANE,38.481286,-100.466185,KANSAS
15103,20103,KS,LEAVENWORTH,39.189511,-95.038977,KANSAS
15105,20105,KS,LINCOLN,39.04728,-98.214284,KANSAS
15107,20107,KS,LINN,38.216549,-94.844932,KANSAS
15109,20109,KS,LOGAN,38.91327,-101.157402,KANSAS
15111,20111,KS,LYON,38.455498,-96.161589,KANSAS
15113,20113,KS,MCPHERSON,38.395812,-97.647489,KANSAS
15115,20115,KS,MARION,38.359647,-97.102771,KANSAS
15117,20117,KS,MARSHALL,39.782709,-96.521243,KANSAS
15119,20119,KS,MEADE,37.243886,-100.360094,KANSAS
15121,20121,KS,MIAMI,38.566772,-94.832963,KANSAS
15123,20123,KS,MITCHELL,39.393026,-98.207362,KANSAS
15125,20125,KS,MONTGOMERY,37.189537,-95.742403,KANSAS
15127,20127,KS,MORRIS,38.688204,-96.651448,KANSAS
15129,20129,KS,MORTON,37.185249,-101.809516,KANSAS
15131,20131,KS,NEMAHA,39.791043,-96.005381,KANSAS
15133,20133,KS,NEOSHO,37.564283,-95.315683,KANSAS
15135,20135,KS,NESS,38.480437,-99.908745,KANSAS
15137,20137,KS,NORTON,39.783867,-99.899235,KANSAS
15139,20139,KS,OSAGE,38.648409,-95.707596,KANSAS
15141,20141,KS,OSBORNE,39.348261,-98.767942,KANSAS
15143,20143,KS,OTTAWA,39.137963,-97.654802,KANSAS
15145,20145,KS,PAWNEE,38.181477,-99.234772,KANSAS
15147,20147,KS,PHILLIPS,39.784506,-99.34215,KANSAS
15149,20149,KS,POTTAWATOMIE,39.382187,-96.337113,KANSAS
15151,20151,KS,PRATT,37.647594,-98.74012,KANSAS
15153,20153,KS,RAWLINS,39.786198,-101.076738,KANSAS
15155,20155,KS,RENO,37.948185,-98.078346,KANSAS
15157,20157,KS,REPUBLIC,39.82891,-97.650921,KANSAS
15159,20159,KS,RICE,38.347178,-98.201415,KANSAS
15161,20161,KS,RILEY,39.291211,-96.727489,KANSAS
15163,20163,KS,ROOKS,39.346006,-99.324492,KANSAS
15165,20165,KS,RUSH,38.523592,-99.309183,KANSAS
15167,20167,KS,RUSSELL,38.91604,-98.770949,KANSAS
15169,20169,KS,SALINE,38.786327,-97.650153,KANSAS
15171,20171,KS,SCOTT,38.481877,-100.90636,KANSAS
15173,20173,KS,SEDGWICK,37.681045,-97.461054,KANSAS
15175,20175,KS,SEWARD,37.180623,-100.854932,KANSAS
15177,20177,KS,SHAWNEE,39.041805,-95.755664,KANSAS
15179,20179,KS,SHERIDAN,39.350547,-100.441228,KANSAS
15181,20181,KS,SHERMAN,39.351352,-101.719859,KANSAS
15183,20183,KS,SMITH,39.78466,-98.785429,KANSAS
15185,20185,KS,STAFFORD,38.03563,-98.719889,KANSAS
15187,20187,KS,STANTON,37.565932,-101.789383,KANSAS
15189,20189,KS,STEVENS,37.200969,-101.317577,KANSAS
15191,20191,KS,SUMNER,37.236662,-97.493352,KANSAS
15193,20193,KS,THOMAS,39.357713,-101.083385,KANSAS
15195,20195,KS,TREGO,38.921302,-99.865423,KANSAS
15197,20197,KS,WABAUNSEE,38.955154,-96.201262,KANSAS
15199,20199,KS,WALLACE,38.926626,-101.771103,KANSAS
15201,20201,KS,WASHINGTON,39.776714,-97.095611,KANSAS
15203,20203,KS,WICHITA,38.481922,-101.347434,KANSAS
15205,20205,KS,WILSON,37.558515,-95.745175,KANSAS
15207,20207,KS,WOODSON,37.888193,-95.758469,KANSAS
15209,20209,KS,WYANDOTTE,39.115384,-94.763087,KANSAS
16001,21001,KY,ADAIR,37.105559,-85.28138,KENTUCKY
16003,21003,KY,ALLEN,36.75077,-86.192458,KENTUCKY
16005,21005,KY,ANDERSON,38.005396,-84.986417,KENTUCKY
16007,21007,KY,BALLARD,37.051323,-89.010367,KENTUCKY
16009,21009,KY,BARREN,36.963671,-85.925162,KENTUCKY
16011,21011,KY,BATH,38.152249,-83.737641,KENTUCKY
16013,21013,KY,BELL,36.72268,-83.681046,KENTUCKY
16015,21015,KY,BOONE,38.974595,-84.731431,KENTUCKY
16017,21017,KY,BOURBON,38.202562,-84.20986,KENTUCKY
16019,21019,KY,BOYD,38.360004,-82.681406,KENTUCKY
16021,21021,KY,BOYLE,37.618104,-84.868352,KENTUCKY
16023,21023,KY,BRACKEN,38.680365,-84.115235,KENTUCKY
16025,21025,KY,BREATHITT,37.506632,-83.28304,KENTUCKY
16027,21027,KY,BRECKINRIDGE,37.777988,-86.432919,KENTUCKY
16029,21029,KY,BULLITT,37.969928,-85.702641,KENTUCKY
16031,21031,KY,BUTLER,37.207013,-86.682471,KENTUCKY
16033,21033,KY,CALDWELL,37.148642,-87.870509,KENTUCKY
16035,21035,KY,CALLOWAY,36.620978,-88.274086,KENTUCKY
16037,21037,KY,CAMPBELL,38.946981,-84.379583,KENTUCKY
16039,21039,KY,CARLISLE,36.857726,-88.975757,KENTUCKY
16041,21041,KY,CARROLL,38.668394,-85.124024,KENTUCKY
16043,21043,KY,CARTER,38.309549,-83.048796,KENTUCKY
16045,21045,KY,CASEY,37.321962,-84.92822,KENTUCKY
16047,21047,KY,CHRISTIAN,36.892059,-87.492986,KENTUCKY
16049,21049,KY,CLARK,37.970133,-84.144974,KENTUCKY
16051,21051,KY,CLAY,37.157317,-83.718433,KENTUCKY
16053,21053,KY,CLINTON,36.727258,-85.136098,KENTUCKY
16055,21055,KY,CRITTENDEN,37.358149,-88.10501,KENTUCKY
16057,21057,KY,CUMBERLAND,36.784224,-85.393507,KENTUCKY
16059,21059,KY,DAVIESS,37.731671,-87.087139,KENTUCKY
16061,21061,KY,EDMONSON,37.227514,-86.218015,KENTUCKY
16063,21063,KY,ELLIOTT,38.115438,-83.097209,KENTUCKY
16065,21065,KY,ESTILL,37.692449,-83.963983,KENTUCKY
16067,21067,KY,FAYETTE,38.040676,-84.458274,KENTUCKY
16069,21069,KY,FLEMING,38.368431,-83.706152,KENTUCKY
16071,21071,KY,FLOYD,37.559878,-82.743361,KENTUCKY
16073,21073,KY,FRANKLIN,38.234919,-84.868786,KENTUCKY
16075,21075,KY,FULTON,36.552511,-89.187659,KENTUCKY
16077,21077,KY,GALLATIN,38.760103,-84.862153,KENTUCKY
16079,21079,KY,GARRARD,37.630162,-84.545856,KENTUCKY
16081,21081,KY,GRANT,38.64916,-84.625927,KENTUCKY
16083,21083,KY,GRAVES,36.723344,-88.649897,KENTUCKY
16085,21085,KY,GRAYSON,37.458577,-86.344011,KENTUCKY
16087,21087,KY,GREEN,37.269637,-85.561403,KENTUCKY
16089,21089,KY,GREENUP,38.563562,-82.93382,KENTUCKY
16091,21091,KY,HANCOCK,37.843325,-86.792761,KENTUCKY
16093,21093,KY,HARDIN,37.695836,-85.963183,KENTUCKY
16095,21095,KY,HARLAN,36.859223,-83.221497,KENTUCKY
16097,21097,KY,HARRISON,38.444578,-84.334131,KENTUCKY
16099,21099,KY,HART,37.316435,-85.8791,KENTUCKY
16101,21101,KY,HENDERSON,37.792542,-87.572577,KENTUCKY
16103,21103,KY,HENRY,38.451585,-85.11989,KENTUCKY
16105,21105,KY,HICKMAN,36.675896,-88.972084,KENTUCKY
16107,21107,KY,HOPKINS,37.31107,-87.542196,KENTUCKY
16109,21109,KY,JACKSON,37.403458,-84.020576,KENTUCKY
16111,21111,KY,JEFFERSON,38.189532,-85.657624,KENTUCKY
16113,21113,KY,JESSAMINE,37.873291,-84.58396,KENTUCKY
16115,21115,KY,JOHNSON,37.84926,-82.830639,KENTUCKY
16117,21117,KY,KENTON,38.930503,-84.533438,KENTUCKY
16119,21119,KY,KNOTT,37.359724,-82.945724,KENTUCKY
16121,21121,KY,KNOX,36.887476,-83.85563,KENTUCKY
16123,21123,KY,LARUE,37.544462,-85.696841,KENTUCKY
16125,21125,KY,LAUREL,37.113268,-84.119395,KENTUCKY
16127,21127,KY,LAWRENCE,38.074457,-82.738302,KENTUCKY
16129,21129,KY,LEE,37.608116,-83.719248,KENTUCKY
16131,21131,KY,LESLIE,37.087846,-83.388617,KENTUCKY
16133,21133,KY,LETCHER,37.118536,-82.861251,KENTUCKY
16135,21135,KY,LEWIS,38.552152,-83.376774,KENTUCKY
16137,21137,KY,LINCOLN,37.457174,-84.658335,KENTUCKY
16139,21139,KY,LIVINGSTON,37.209517,-88.363426,KENTUCKY
16141,21141,KY,LOGAN,36.859829,-86.881436,KENTUCKY
16143,21143,KY,LYON,37.023976,-88.083391,KENTUCKY
16145,21145,KY,MCCRACKEN,37.053683,-88.712366,KENTUCKY
16147,21147,KY,MCCREARY,36.731136,-84.491052,KENTUCKY
16149,21149,KY,MCLEAN,37.526707,-87.265597,KENTUCKY
16151,21151,KY,MADISON,37.723592,-84.276998,KENTUCKY
16153,21153,KY,MAGOFFIN,37.698953,-83.069716,KENTUCKY
16155,21155,KY,MARION,37.552604,-85.268959,KENTUCKY
16157,21157,KY,MARSHALL,36.882017,-88.332752,KENTUCKY
16159,21159,KY,MARTIN,37.796774,-82.506623,KENTUCKY
16161,21161,KY,MASON,38.594137,-83.828125,KENTUCKY
16163,21163,KY,MEADE,37.967476,-86.200863,KENTUCKY
16165,21165,KY,MENIFEE,37.950665,-83.597515,KENTUCKY
16167,21167,KY,MERCER,37.812085,-84.879694,KENTUCKY
16169,21169,KY,METCALFE,36.992515,-85.633598,KENTUCKY
16171,21171,KY,MONROE,36.714077,-85.713508,KENTUCKY
16173,21173,KY,MONTGOMERY,38.038138,-83.912337,KENTUCKY
16175,21175,KY,MORGAN,37.92294,-83.258944,KENTUCKY
16177,21177,KY,MUHLENBERG,37.213816,-87.134092,KENTUCKY
16179,21179,KY,NELSON,37.803188,-85.465955,KENTUCKY
16181,21181,KY,NICHOLAS,38.337132,-84.025554,KENTUCKY
16183,21183,KY,OHIO,37.477859,-86.844871,KENTUCKY
16185,21185,KY,OLDHAM,38.400127,-85.456152,KENTUCKY
16187,21187,KY,OWEN,38.499394,-84.84159,KENTUCKY
16189,21189,KY,OWSLEY,37.423614,-83.691628,KENTUCKY
16191,21191,KY,PENDLETON,38.696284,-84.351944,KENTUCKY
16193,21193,KY,PERRY,37.241282,-83.217772,KENTUCKY
16195,21195,KY,PIKE,37.486031,-82.410913,KENTUCKY
16197,21197,KY,POWELL,37.800629,-83.820015,KENTUCKY
16199,21199,KY,PULASKI,37.108312,-84.579986,KENTUCKY
16201,21201,KY,ROBERTSON,38.513473,-84.06423,KENTUCKY
16203,21203,KY,ROCKCASTLE,37.36105,-84.314368,KENTUCKY
16205,21205,KY,ROWAN,38.20425,-83.42807,KENTUCKY
16207,21207,KY,RUSSELL,36.990587,-85.05495,KENTUCKY
16209,21209,KY,SCOTT,38.289882,-84.579376,KENTUCKY
16211,21211,KY,SHELBY,38.239028,-85.228266,KENTUCKY
16213,21213,KY,SIMPSON,36.740947,-86.581746,KENTUCKY
16215,21215,KY,SPENCER,38.024893,-85.316775,KENTUCKY
16217,21217,KY,TAYLOR,37.366184,-85.327836,KENTUCKY
16219,21219,KY,TODD,36.840338,-87.183642,KENTUCKY
16221,21221,KY,TRIGG,36.807681,-87.858652,KENTUCKY
16223,21223,KY,TRIMBLE,38.62004,-85.351208,KENTUCKY
16225,21225,KY,UNION,37.658029,-87.95165,KENTUCKY
16227,21227,KY,WARREN,36.995634,-86.423579,KENTUCKY
16229,21229,KY,WASHINGTON,37.754209,-85.175416,KENTUCKY
16231,21231,KY,WAYNE,36.802011,-84.83044,KENTUCKY
16233,21233,KY,WEBSTER,37.51946,-87.68479,KENTUCKY
16235,21235,KY,WHITLEY,36.758024,-84.144648,KENTUCKY
16237,21237,KY,WOLFE,37.743774,-83.495068,KENTUCKY
16239,21239,KY,WOODFORD,38.043103,-84.748863,KENTUCKY
17001,22001,LA,ACADIA,30.291497,-92.411037,LOUISIANA
17003,22003,LA,ALLEN,30.652744,-92.819605,LOUISIANA
17005,22005,LA,ASCENSION,30.206444,-90.912502,LOUISIANA
17007,22007,LA,ASSUMPTION,29.898853,-91.052465,LOUISIANA
17009,22009,LA,AVOYELLES,31.088503,-91.983275,LOUISIANA
17011,22011,LA,BEAUREGARD,30.645018,-93.340253,LOUISIANA
17013,22013,LA,BIENVILLE,32.340952,-93.041151,LOUISIANA
17015,22015,LA,BOSSIER,32.695851,-93.616132,LOUISIANA
17017,22017,LA,CADDO,32.577195,-93.882423,LOUISIANA
17019,22019,LA,CALCASIEU,30.229559,-93.358015,LOUISIANA
17021,22021,LA,CALDWELL,32.101219,-92.114231,LOUISIANA
17023,22023,LA,CAMERON,29.871812,-93.164948,LOUISIANA
17025,22025,LA,CATAHOULA,31.666517,-91.846703,LOUISIANA
17027,22027,LA,CLAIBORNE,32.827043,-92.989767,LOUISIANA
17029,22029,LA,CONCORDIA,31.469805,-91.626314,LOUISIANA
17031,22031,LA,DE SOTO,32.059248,-93.740797,LOUISIANA
17033,22033,LA,EAST BATON ROUGE,30.54393,-91.093131,LOUISIANA
17035,22035,LA,EAST CARROLL,32.73017,-91.234141,LOUISIANA
17037,22037,LA,EAST FELICIANA,30.839784,-91.043434,LOUISIANA
17039,22039,LA,EVANGELINE,30.720693,-92.404086,LOUISIANA
17041,22041,LA,FRANKLIN,32.139076,-91.672371,LOUISIANA
17043,22043,LA,GRANT,31.597787,-92.561716,LOUISIANA
17045,22045,LA,IBERIA,30.007127,-91.976784,LOUISIANA
17047,22047,LA,IBERVILLE,30.270628,-91.365848,LOUISIANA
17049,22049,LA,JACKSON,32.30429,-92.5617,LOUISIANA
17051,22051,LA,JEFFERSON,29.522281,-90.081001,LOUISIANA
17053,22053,LA,JEFFERSON DAVIS,30.269529,-92.816221,LOUISIANA
17055,22055,LA,LAFAYETTE,30.206507,-92.06417,LOUISIANA
17057,22057,LA,LAFOURCHE,29.491992,-90.394849,LOUISIANA
17059,22059,LA,LA SALLE,31.680083,-92.161596,LOUISIANA
17061,22061,LA,LINCOLN,32.601823,-92.662303,LOUISIANA
17063,22063,LA,LIVINGSTON,30.440419,-90.727474,LOUISIANA
17065,22065,LA,MADISON,32.341375,-91.242023,LOUISIANA
17067,22067,LA,MOREHOUSE,32.820008,-91.800399,LOUISIANA
17069,22069,LA,NATCHITOCHES,31.732551,-93.082611,LOUISIANA
17071,22071,LA,ORLEANS,30.05342,-89.934502,LOUISIANA
17073,22073,LA,OUACHITA,32.477664,-92.154848,LOUISIANA
17075,22075,LA,PLAQUEMINES,29.402337,-89.298489,LOUISIANA
17077,22077,LA,POINTE COUPEE,30.708319,-91.604621,LOUISIANA
17079,22079,LA,RAPIDES,31.193204,-92.535953,LOUISIANA
17081,22081,LA,RED RIVER,32.101213,-93.34905,LOUISIANA
17083,22083,LA,RICHLAND,32.413158,-91.748353,LOUISIANA
17085,22085,LA,SABINE,31.560402,-93.559579,LOUISIANA
17087,22087,LA,ST. BERNARD,29.91811,-89.263494,LOUISIANA
17089,22089,LA,ST. CHARLES,29.905722,-90.357855,LOUISIANA
17091,22091,LA,ST. HELENA,30.822539,-90.708307,LOUISIANA
17093,22093,LA,ST. JAMES,30.024777,-90.793956,LOUISIANA
17095,22095,LA,ST. JOHN THE BAPTIST,30.147307,-90.485674,LOUISIANA
17097,22097,LA,ST. LANDRY,30.583441,-91.989274,LOUISIANA
17099,22099,LA,ST. MARTIN,30.121433,-91.611481,LOUISIANA
17101,22101,LA,ST. MARY,29.629349,-91.463804,LOUISIANA
17103,22103,LA,ST. TAMMANY,30.410022,-89.951962,LOUISIANA
17105,22105,LA,TANGIPAHOA,30.62158,-90.406633,LOUISIANA
17107,22107,LA,TENSAS,32.001489,-91.342576,LOUISIANA
17109,22109,LA,TERREBONNE,29.33413,-90.843674,LOUISIANA
17111,22111,LA,UNION,32.829349,-92.37565,LOUISIANA
17113,22113,LA,VERMILION,29.789722,-92.291568,LOUISIANA
17115,22115,LA,VERNON,31.110563,-93.18152,LOUISIANA
17117,22117,LA,WASHINGTON,30.852144,-90.046253,LOUISIANA
17119,22119,LA,WEBSTER,32.732152,-93.339825,LOUISIANA
17121,22121,LA,WEST BATON ROUGE,30.464052,-91.309808,LOUISIANA
17123,22123,LA,WEST CARROLL,32.79248,-91.451998,LOUISIANA
17125,22125,LA,WEST FELICIANA,30.872701,-91.421008,LOUISIANA
17127,22127,LA,WINN,31.941187,-92.641269,LOUISIANA
17700,,LA,W CAMRON,,,LOUISIANA
17701,,LA,W CAMN W,,,LOUISIANA
17702,,LA,W CAMN S,,,LOUISIANA
17703,,LA,E CAMRON,,,LOUISIANA
17704,,LA,E CAMN S,,,LOUISIANA
17705,,LA,VRMLN OS,,,LOUISIANA
17706,,LA,VERMLN S,,,LOUISIANA
17707,,LA,S MRSH I,,,LOUISIANA
17708,,LA,S MH I S,,,LOUISIANA
17709,,LA,EUGEN IS,,,LOUISIANA
17710,,LA,EUGN I S,,,LOUISIANA
17711,,LA,SHIP SHL,,,LOUISIANA
17712,,LA,SH SHL S,,,LOUISIANA
17713,,LA,S PELTO,,,LOUISIANA
17714,,LA,BY MRCHD,,,LOUISIANA
17715,,LA,S TIMBLR,,,LOUISIANA
17716,,LA,S TIMB S,,,LOUISIANA
17717,,LA,GRAND IS,,,LOUISIANA
17718,,LA,GRD IS S,,,LOUISIANA
17719,,LA,W DELTA,,,LOUISIANA
17720,,LA,W DELT S,,,LOUISIANA
17721,,LA,S PASS,,,LOUISIANA
17722,,LA,S PASS S,,,LOUISIANA
17723,,LA,S PASS E,,,LOUISIANA
17724,,LA,M PS S E,,,LOUISIANA
17725,,LA,MAIN PS,,,LOUISIANA
17726,,LA,BRETN SD,,,LOUISIANA
17727,,LA,CHAND SD,,,LOUISIANA
17728,,LA,CHANDLUR,,,LOUISIANA
17729,,LA,CHANDR E,,,LOUISIANA
17730,,LA,CHDR S A,,,LOUISIANA
17731,,LA,SABINE P,,,LOUISIANA
18001,23001,ME,ANDROSCOGGIN,44.167681,-70.207435,MAINE
18003,23003,ME,AROOSTOOK,46.709193,-68.612409,MAINE
18005,23005,ME,CUMBERLAND,43.808348,-70.330375,MAINE
18007,23007,ME,FRANKLIN,44.973012,-70.444727,MAINE
18009,23009,ME,HANCOCK,44.564906,-68.370703,MAINE
18011,23011,ME,KENNEBEC,44.417012,-69.765764,MAINE
18013,23013,ME,KNOX,44.042045,-69.038514,MAINE
18015,23015,ME,LINCOLN,43.994226,-69.514056,MAINE
18017,23017,ME,OXFORD,44.4945,-70.734421,MAINE
18019,23019,ME,PENOBSCOT,45.409279,-68.666598,MAINE
18021,23021,ME,PISCATAQUIS,45.915639,-69.102231,MAINE
18023,23023,ME,SAGADAHOC,43.916645,-69.844326,MAINE
18025,23025,ME,SOMERSET,45.503646,-69.95611,MAINE
18027,23027,ME,WALDO,44.505834,-69.138952,MAINE
18029,23029,ME,WASHINGTON,44.967009,-67.609354,MAINE
18031,23031,ME,YORK,43.426019,-70.668425,MAINE
18205,,ME,CMBRLD O,,,MAINE
18209,,ME,HANCOK O,,,MAINE
18213,,ME,KNOX O,,,MAINE
18215,,ME,LINCLN O,,,MAINE
18223,,ME,SAGADC O,,,MAINE
18229,,ME,WSHGTN O,,,MAINE
18231,,ME,YORK O,,,MAINE
19001,24001,MD,ALLEGANY,39.612313,-78.703104,MARYLAND
19003,24003,MD,ANNE ARUNDEL,38.991619,-76.560874,MARYLAND
19005,24005,MD,BALTIMORE,39.443167,-76.616569,MARYLAND
19007,,MD,BALTM CY,,,MARYLAND
19009,24009,MD,CALVERT,38.522611,-76.529493,MARYLAND
19011,24011,MD,CAROLINE,38.871531,-75.831662,MARYLAND
19013,24013,MD,CARROLL,39.563301,-77.015368,MARYLAND
19015,24015,MD,CECIL,39.562354,-75.941585,MARYLAND
19017,24017,MD,CHARLES,38.472853,-77.015427,MARYLAND
19019,24019,MD,DORCHESTER,38.429196,-76.047433,MARYLAND
19021,24021,MD,FREDERICK,39.470214,-77.397628,MARYLAND
19023,24023,MD,GARRETT,39.547299,-79.274619,MARYLAND
19025,24025,MD,HARFORD,39.537429,-76.299789,MARYLAND
19027,24027,MD,HOWARD,39.252264,-76.924406,MARYLAND
19029,24029,MD,KENT,39.241279,-76.125987,MARYLAND
19031,24031,MD,MONTGOMERY,39.137381,-77.203063,MARYLAND
19033,24033,MD,PRINCE GEORGE'S,38.82588,-76.847272,MARYLAND
19035,24035,MD,QUEEN ANNE'S,39.040693,-76.082405,MARYLAND
19037,24037,MD,ST. MARY'S,38.220289,-76.530384,MARYLAND
19039,24039,MD,SOMERSET,38.07445,-75.853323,MARYLAND
19041,24041,MD,TALBOT,38.748352,-76.17848,MARYLAND
19043,24043,MD,WASHINGTON,39.603621,-77.814671,MARYLAND
19045,24045,MD,WICOMICO,38.367375,-75.632089,MARYLAND
19047,24047,MD,WORCESTER,38.222133,-75.309931,MARYLAND
19247,,MD,WORCTR O,,,MARYLAND
19510,24510,MD,BALTIMORE,39.300032,-76.610476,MARYLAND
20001,25001,MA,BARNSTABLE,41.799014,-70.21188,MASSACHUSETTS
20003,25003,MA,BERKSHIRE,42.375314,-73.213948,MASSACHUSETTS
20005,25005,MA,BRISTOL,41.747624,-71.088963,MASSACHUSETTS
20007,25007,MA,DUKES,41.38097,-70.701499,MASSACHUSETTS
20009,25009,MA,ESSEX,42.642711,-70.865107,MASSACHUSETTS
20011,25011,MA,FRANKLIN,42.584504,-72.591792,MASSACHUSETTS
20013,25013,MA,HAMPDEN,42.136198,-72.635648,MASSACHUSETTS
20015,25015,MA,HAMPSHIRE,42.339459,-72.663694,MASSACHUSETTS
20017,25017,MA,MIDDLESEX,42.481711,-71.394917,MASSACHUSETTS
20019,25019,MA,NANTUCKET,41.305878,-70.14191,MASSACHUSETTS
20021,25021,MA,NORFOLK,42.171751,-71.181116,MASSACHUSETTS
20023,25023,MA,PLYMOUTH,41.987196,-70.741942,MASSACHUSETTS
20025,25025,MA,SUFFOLK,42.338551,-71.018253,MASSACHUSETTS
20027,25027,MA,WORCESTER,42.311693,-71.940282,MASSACHUSETTS
20201,,MA,BRNSTL O,,,MASSACHUSETTS
20205,,MA,BRISTL O,,,MASSACHUSETTS
20207,,MA,DUKES O,,,MASSACHUSETTS
20209,,MA,ESSEX O,,,MASSACHUSETTS
20219,,MA,NNTCKT O,,,MASSACHUSETTS
20221,,MA,NORFLK O,,,MASSACHUSETTS
20223,,MA,PLYMTH O,,,MASSACHUSETTS
20225,,MA,SUFOLK O,,,MASSACHUSETTS
21001,26001,MI,ALCONA,44.682535,-82.834078,MICHIGAN
21003,26003,MI,ALGER,47.080077,-86.564108,MICHIGAN
21005,26005,MI,ALLEGAN,42.595787,-86.634745,MICHIGAN
21007,26007,MI,ALPENA,44.894954,-83.426574,MICHIGAN
21009,26009,MI,ANTRIM,45.005455,-85.175639,MICHIGAN
21011,26011,MI,ARENAC,44.036833,-83.740675,MICHIGAN
21013,26013,MI,BARAGA,46.695859,-88.36181,MICHIGAN
21015,26015,MI,BARRY,42.582811,-85.31455,MICHIGAN
21017,26017,MI,BAY,43.699711,-83.978701,MICHIGAN
21019,26019,MI,BENZIE,44.648621,-86.494326,MICHIGAN
21021,26021,MI,BERRIEN,41.791382,-86.742543,MICHIGAN
21023,26023,MI,BRANCH,41.918455,-85.066885,MICHIGAN
21025,26025,MI,CALHOUN,42.24299,-85.012385,MICHIGAN
21027,26027,MI,CASS,41.917243,-86.000142,MICHIGAN
21029,26029,MI,CHARLEVOIX,45.513164,-85.450392,MICHIGAN
21031,26031,MI,CHEBOYGAN,45.47612,-84.495271,MICHIGAN
21033,26033,MI,CHIPPEWA,46.321819,-84.52063,MICHIGAN
21035,26035,MI,CLARE,43.991137,-84.838325,MICHIGAN
21037,26037,MI,CLINTON,42.950455,-84.591695,MICHIGAN
21039,26039,MI,CRAWFORD,44.680175,-84.611343,MICHIGAN
21041,26041,MI,DELTA,45.805229,-86.901938,MICHIGAN
21043,26043,MI,DICKINSON,46.012823,-87.866119,MICHIGAN
21045,26045,MI,EATON,42.589614,-84.846524,MICHIGAN
21047,26047,MI,EMMET,45.590094,-84.986822,MICHIGAN
21049,26049,MI,GENESEE,43.021077,-83.706372,MICHIGAN
21051,26051,MI,GLADWIN,43.98975,-84.389816,MICHIGAN
21053,26053,MI,GOGEBIC,46.461513,-89.806863,MICHIGAN
21055,26055,MI,GRAND TRAVERSE,44.718688,-85.553848,MICHIGAN
21057,26057,MI,GRATIOT,43.292326,-84.60469,MICHIGAN
21059,26059,MI,HILLSDALE,41.927461,-84.637479,MICHIGAN
21061,26061,MI,HOUGHTON,46.998431,-88.651908,MICHIGAN
21063,26063,MI,HURON,43.907616,-82.857045,MICHIGAN
21065,26065,MI,INGHAM,42.603534,-84.373811,MICHIGAN
21067,26067,MI,IONIA,42.94465,-85.073766,MICHIGAN
21069,26069,MI,IOSCO,44.329482,-82.849444,MICHIGAN
21071,26071,MI,IRON,46.170254,-88.540526,MICHIGAN
21073,26073,MI,ISABELLA,43.645233,-84.839424,MICHIGAN
21075,26075,MI,JACKSON,42.248474,-84.420868,MICHIGAN
21077,26077,MI,KALAMAZOO,42.246266,-85.532854,MICHIGAN
21079,26079,MI,KALKASKA,44.678881,-85.088992,MICHIGAN
21081,26081,MI,KENT,43.032497,-85.547446,MICHIGAN
21083,26083,MI,KEWEENAW,47.681974,-88.148797,MICHIGAN
21085,26085,MI,LAKE,43.995187,-85.8114,MICHIGAN
21087,26087,MI,LAPEER,43.088633,-83.224325,MICHIGAN
21089,26089,MI,LEELANAU,45.146182,-86.051574,MICHIGAN
21091,26091,MI,LENAWEE,41.896019,-84.074307,MICHIGAN
21093,26093,MI,LIVINGSTON,42.602532,-83.911718,MICHIGAN
21095,26095,MI,LUCE,46.940602,-85.582368,MICHIGAN
21097,26097,MI,MACKINAC,46.167868,-85.303762,MICHIGAN
21099,26099,MI,MACOMB,42.671493,-82.910856,MICHIGAN
21101,26101,MI,MANISTEE,44.350385,-86.602967,MICHIGAN
21103,26103,MI,MARQUETTE,46.656596,-87.584028,MICHIGAN
21105,26105,MI,MASON,43.996636,-86.750814,MICHIGAN
21107,26107,MI,MECOSTA,43.635295,-85.332751,MICHIGAN
21109,26109,MI,MENOMINEE,45.538237,-87.492949,MICHIGAN
21111,26111,MI,MIDLAND,43.648203,-84.379414,MICHIGAN
21113,26113,MI,MISSAUKEE,44.325424,-85.085471,MICHIGAN
21115,26115,MI,MONROE,41.916097,-83.487106,MICHIGAN
21117,26117,MI,MONTCALM,43.312782,-85.149468,MICHIGAN
21119,26119,MI,MONTMORENCY,45.024134,-84.130107,MICHIGAN
21121,26121,MI,MUSKEGON,43.289258,-86.751892,MICHIGAN
21123,26123,MI,NEWAYGO,43.562709,-85.791423,MICHIGAN
21125,26125,MI,OAKLAND,42.660452,-83.38421,MICHIGAN
21127,26127,MI,OCEANA,43.647255,-86.807575,MICHIGAN
21129,26129,MI,OGEMAW,44.33328,-84.128073,MICHIGAN
21131,26131,MI,ONTONAGON,47.216602,-89.500463,MICHIGAN
21133,26133,MI,OSCEOLA,43.997552,-85.322283,MICHIGAN
21135,26135,MI,OSCODA,44.687257,-84.126905,MICHIGAN
21137,26137,MI,OTSEGO,45.021787,-84.576603,MICHIGAN
21139,26139,MI,OTTAWA,42.942461,-86.654946,MICHIGAN
21141,26141,MI,PRESQUE ISLE,45.489515,-83.384019,MICHIGAN
21143,26143,MI,ROSCOMMON,44.339517,-84.611271,MICHIGAN
21145,26145,MI,SAGINAW,43.328267,-84.05541,MICHIGAN
21147,26147,MI,ST. CLAIR,42.928803,-82.668913,MICHIGAN
21149,26149,MI,ST. JOSEPH,41.911488,-85.52287,MICHIGAN
21151,26151,MI,SANILAC,43.449155,-82.642815,MICHIGAN
21153,26153,MI,SCHOOLCRAFT,46.021122,-86.197029,MICHIGAN
21155,26155,MI,SHIAWASSEE,42.951545,-84.146352,MICHIGAN
21157,26157,MI,TUSCOLA,43.487902,-83.436618,MICHIGAN
21159,26159,MI,VAN BUREN,42.28215,-86.306076,MICHIGAN
21161,26161,MI,WASHTENAW,42.252327,-83.844634,MICHIGAN
21163,26163,MI,WAYNE,42.284664,-83.261953,MICHIGAN
21165,26165,MI,WEXFORD,44.331375,-85.570046,MICHIGAN
21521,,MI,LK MICH,,,MICHIGAN
21554,,MI,LK HURN,,,MICHIGAN
21556,,MI,LK ERIE,,,MICHIGAN
21558,,MI,LK SUPR,,,MICHIGAN
22001,27001,MN,AITKIN,46.602446,-93.41976,MINNESOTA
22003,27003,MN,ANOKA,45.27411,-93.242723,MINNESOTA
22005,27005,MN,BECKER,46.937629,-95.741757,MINNESOTA
22007,27007,MN,BELTRAMI,47.879508,-95.00505,MINNESOTA
22009,27009,MN,BENTON,45.701225,-94.00144,MINNESOTA
22011,27011,MN,BIG STONE,45.419925,-96.402226,MINNESOTA
22013,27013,MN,BLUE EARTH,44.03371,-94.064012,MINNESOTA
22015,27015,MN,BROWN,44.246541,-94.733647,MINNESOTA
22017,27017,MN,CARLTON,46.603818,-92.671044,MINNESOTA
22019,27019,MN,CARVER,44.82132,-93.800091,MINNESOTA
22021,27021,MN,CASS,46.951745,-94.333705,MINNESOTA
22023,27023,MN,CHIPPEWA,45.028625,-95.564108,MINNESOTA
22025,27025,MN,CHISAGO,45.505444,-92.903849,MINNESOTA
22027,27027,MN,CLAY,46.898377,-96.494901,MINNESOTA
22029,27029,MN,CLEARWATER,47.575873,-95.371117,MINNESOTA
22031,27031,MN,COOK,47.538569,-90.29019,MINNESOTA
22033,27033,MN,COTTONWOOD,44.010711,-95.18313,MINNESOTA
22035,27035,MN,CROW WING,46.491653,-94.070718,MINNESOTA
22037,27037,MN,DAKOTA,44.670893,-93.062481,MINNESOTA
22039,27039,MN,DODGE,44.020706,-92.869353,MINNESOTA
22041,27041,MN,DOUGLAS,45.936829,-95.462156,MINNESOTA
22043,27043,MN,FARIBAULT,43.676522,-93.947234,MINNESOTA
22045,27045,MN,FILLMORE,43.679187,-92.093937,MINNESOTA
22047,27047,MN,FREEBORN,43.674202,-93.350289,MINNESOTA
22049,27049,MN,GOODHUE,44.406178,-92.716,MINNESOTA
22051,27051,MN,GRANT,45.930743,-96.010699,MINNESOTA
22053,27053,MN,HENNEPIN,45.006121,-93.475228,MINNESOTA
22055,27055,MN,HOUSTON,43.66699,-91.501556,MINNESOTA
22057,27057,MN,HUBBARD,47.095551,-94.91329,MINNESOTA
22059,27059,MN,ISANTI,45.562431,-93.296339,MINNESOTA
22061,27061,MN,ITASCA,47.490817,-93.611102,MINNESOTA
22063,27063,MN,JACKSON,43.671111,-95.149731,MINNESOTA
22065,27065,MN,KANABEC,45.94776,-93.297788,MINNESOTA
22067,27067,MN,KANDIYOHI,45.152714,-95.004981,MINNESOTA
22069,27069,MN,KITTSON,48.77604,-96.780349,MINNESOTA
22071,27071,MN,KOOCHICHING,48.245489,-93.782842,MINNESOTA
22073,27073,MN,LAC QUI PARLE,44.999857,-96.176838,MINNESOTA
22075,27075,MN,LAKE,47.517111,-91.411704,MINNESOTA
22077,27077,MN,LAKE OF THE WOODS,48.7681,-94.904633,MINNESOTA
22079,27079,MN,LE SUEUR,44.373424,-93.730143,MINNESOTA
22081,27081,MN,LINCOLN,44.408238,-96.272032,MINNESOTA
22083,27083,MN,LYON,44.409195,-95.847268,MINNESOTA
22085,27085,MN,MCLEOD,44.821657,-94.272323,MINNESOTA
22087,27087,MN,MAHNOMEN,47.328387,-95.811089,MINNESOTA
22089,27089,MN,MARSHALL,48.362728,-96.357761,MINNESOTA
22091,27091,MN,MARTIN,43.677118,-94.537252,MINNESOTA
22093,27093,MN,MEEKER,45.123155,-94.527346,MINNESOTA
22095,27095,MN,MILLE LACS,45.929043,-93.632996,MINNESOTA
22097,27097,MN,MORRISON,46.020484,-94.266619,MINNESOTA
22099,27099,MN,MOWER,43.666249,-92.759514,MINNESOTA
22101,27101,MN,MURRAY,44.015594,-95.761581,MINNESOTA
22103,27103,MN,NICOLLET,44.358819,-94.245685,MINNESOTA
22105,27105,MN,NOBLES,43.677686,-95.763132,MINNESOTA
22107,27107,MN,NORMAN,47.32947,-96.463807,MINNESOTA
22109,27109,MN,OLMSTED,44.003429,-92.406722,MINNESOTA
22111,27111,MN,OTTER TAIL,46.405725,-95.714578,MINNESOTA
22113,27113,MN,PENNINGTON,48.069247,-96.037725,MINNESOTA
22115,27115,MN,PINE,46.10094,-92.763094,MINNESOTA
22117,27117,MN,PIPESTONE,44.015361,-96.257015,MINNESOTA
22119,27119,MN,POLK,47.774254,-96.400027,MINNESOTA
22121,27121,MN,POPE,45.589623,-95.446705,MINNESOTA
22123,27123,MN,RAMSEY,45.01525,-93.100141,MINNESOTA
22125,27125,MN,RED LAKE,47.865487,-96.08718,MINNESOTA
22127,27127,MN,REDWOOD,44.403536,-95.254241,MINNESOTA
22129,27129,MN,RENVILLE,44.723697,-94.955617,MINNESOTA
22131,27131,MN,RICE,44.350943,-93.298503,MINNESOTA
22133,27133,MN,ROCK,43.669587,-96.263238,MINNESOTA
22135,27135,MN,ROSEAU,48.761068,-95.821504,MINNESOTA
22137,27137,MN,ST. LOUIS,47.578635,-92.51457,MINNESOTA
22139,27139,MN,SCOTT,44.651805,-93.533731,MINNESOTA
22141,27141,MN,SHERBURNE,45.453176,-93.76913,MINNESOTA
22143,27143,MN,SIBLEY,44.575734,-94.230123,MINNESOTA
22145,27145,MN,STEARNS,45.555235,-94.610482,MINNESOTA
22147,27147,MN,STEELE,44.015261,-93.220453,MINNESOTA
22149,27149,MN,STEVENS,45.593461,-95.992315,MINNESOTA
22151,27151,MN,SWIFT,45.27581,-95.690124,MINNESOTA
22153,27153,MN,TODD,46.066569,-94.900576,MINNESOTA
22155,27155,MN,TRAVERSE,45.769935,-96.474832,MINNESOTA
22157,27157,MN,WABASHA,44.289693,-92.23334,MINNESOTA
22159,27159,MN,WADENA,46.586986,-94.988608,MINNESOTA
22161,27161,MN,WASECA,44.01846,-93.589844,MINNESOTA
22163,27163,MN,WASHINGTON,45.037929,-92.890117,MINNESOTA
22165,27165,MN,WATONWAN,43.978109,-94.613798,MINNESOTA
22167,27167,MN,WILKIN,46.362335,-96.476657,MINNESOTA
22169,27169,MN,WINONA,43.982268,-91.776708,MINNESOTA
22171,27171,MN,WRIGHT,45.175091,-93.966396,MINNESOTA
22173,27173,MN,YELLOW MEDICINE,44.715736,-95.862756,MINNESOTA
22522,,MN,LK SUPR,,,MINNESOTA
23001,28001,MS,ADAMS,31.486218,-91.351781,MISSISSIPPI
23003,28003,MS,ALCORN,34.886569,-88.581109,MISSISSIPPI
23005,28005,MS,AMITE,31.203933,-90.795542,MISSISSIPPI
23007,28007,MS,ATTALA,33.09047,-89.588622,MISSISSIPPI
23009,28009,MS,BENTON,34.810518,-89.200285,MISSISSIPPI
23011,28011,MS,BOLIVAR,33.799139,-90.88412,MISSISSIPPI
23013,28013,MS,CALHOUN,33.936634,-89.337114,MISSISSIPPI
23015,28015,MS,CARROLL,33.440795,-89.918887,MISSISSIPPI
23017,28017,MS,CHICKASAW,33.921654,-88.945808,MISSISSIPPI
23019,28019,MS,CHOCTAW,33.345964,-89.251332,MISSISSIPPI
23021,28021,MS,CLAIBORNE,31.97281,-90.915424,MISSISSIPPI
23023,28023,MS,CLARKE,32.045374,-88.687976,MISSISSIPPI
23025,28025,MS,CLAY,33.661733,-88.783326,MISSISSIPPI
23027,28027,MS,COAHOMA,34.22867,-90.603165,MISSISSIPPI
23029,28029,MS,COPIAH,31.866915,-90.448758,MISSISSIPPI
23031,28031,MS,COVINGTON,31.633331,-89.548897,MISSISSIPPI
23033,28033,MS,DESOTO,34.874266,-89.99324,MISSISSIPPI
23035,28035,MS,FORREST,31.18858,-89.259447,MISSISSIPPI
23037,28037,MS,FRANKLIN,31.477776,-90.895811,MISSISSIPPI
23039,28039,MS,GEORGE,30.855431,-88.642268,MISSISSIPPI
23041,28041,MS,GREENE,31.212845,-88.634811,MISSISSIPPI
23043,28043,MS,GRENADA,33.770031,-89.80274,MISSISSIPPI
23045,28045,MS,HANCOCK,30.391641,-89.482791,MISSISSIPPI
23047,28047,MS,HARRISON,30.416536,-89.083376,MISSISSIPPI
23049,28049,MS,HINDS,32.267788,-90.466017,MISSISSIPPI
23051,28051,MS,HOLMES,33.125942,-90.091197,MISSISSIPPI
23053,28053,MS,HUMPHREYS,33.130996,-90.523421,MISSISSIPPI
23055,28055,MS,ISSAQUENA,32.755539,-91.003535,MISSISSIPPI
23057,28057,MS,ITAWAMBA,34.281075,-88.363127,MISSISSIPPI
23059,28059,MS,JACKSON,30.456005,-88.625101,MISSISSIPPI
23061,28061,MS,JASPER,32.016989,-89.11943,MISSISSIPPI
23063,28063,MS,JEFFERSON,31.733633,-91.043878,MISSISSIPPI
23065,28065,MS,JEFFERSON DAVIS,31.565606,-89.826517,MISSISSIPPI
23067,28067,MS,JONES,31.616601,-89.168532,MISSISSIPPI
23069,28069,MS,KEMPER,32.750136,-88.625631,MISSISSIPPI
23071,28071,MS,LAFAYETTE,34.349298,-89.485903,MISSISSIPPI
23073,28073,MS,LAMAR,31.197586,-89.506369,MISSISSIPPI
23075,28075,MS,LAUDERDALE,32.403998,-88.660449,MISSISSIPPI
23077,28077,MS,LAWRENCE,31.550009,-90.10753,MISSISSIPPI
23079,28079,MS,LEAKE,32.760737,-89.522236,MISSISSIPPI
23081,28081,MS,LEE,34.29237,-88.682439,MISSISSIPPI
23083,28083,MS,LEFLORE,33.54979,-90.294934,MISSISSIPPI
23085,28085,MS,LINCOLN,31.535216,-90.453566,MISSISSIPPI
23087,28087,MS,LOWNDES,33.471424,-88.439723,MISSISSIPPI
23089,28089,MS,MADISON,32.63437,-90.03416,MISSISSIPPI
23091,28091,MS,MARION,31.230167,-89.821712,MISSISSIPPI
23093,28093,MS,MARSHALL,34.76619,-89.504231,MISSISSIPPI
23095,28095,MS,MONROE,33.89003,-88.485038,MISSISSIPPI
23097,28097,MS,MONTGOMERY,33.500714,-89.639625,MISSISSIPPI
23099,28099,MS,NESHOBA,32.752518,-89.119274,MISSISSIPPI
23101,28101,MS,NEWTON,32.40197,-89.118412,MISSISSIPPI
23103,28103,MS,NOXUBEE,33.106508,-88.566004,MISSISSIPPI
23105,28105,MS,OKTIBBEHA,33.422313,-88.876151,MISSISSIPPI
23107,28107,MS,PANOLA,34.365205,-89.963065,MISSISSIPPI
23109,28109,MS,PEARL RIVER,30.774793,-89.586904,MISSISSIPPI
23111,28111,MS,PERRY,31.169307,-88.988755,MISSISSIPPI
23113,28113,MS,PIKE,31.177516,-90.397728,MISSISSIPPI
23115,28115,MS,PONTOTOC,34.227081,-89.037239,MISSISSIPPI
23117,28117,MS,PRENTISS,34.621104,-88.522179,MISSISSIPPI
23119,28119,MS,QUITMAN,34.252833,-90.290171,MISSISSIPPI
23121,28121,MS,RANKIN,32.267123,-89.946063,MISSISSIPPI
23123,28123,MS,SCOTT,32.427127,-89.533209,MISSISSIPPI
23125,28125,MS,SHARKEY,32.892395,-90.827613,MISSISSIPPI
23127,28127,MS,SIMPSON,31.902505,-89.917709,MISSISSIPPI
23129,28129,MS,SMITH,32.019029,-89.494877,MISSISSIPPI
23131,28131,MS,STONE,30.790184,-89.112297,MISSISSIPPI
23133,28133,MS,SUNFLOWER,33.605529,-90.59509,MISSISSIPPI
23135,28135,MS,TALLAHATCHIE,33.954527,-90.172245,MISSISSIPPI
23137,28137,MS,TATE,34.649553,-89.943105,MISSISSIPPI
23139,28139,MS,TIPPAH,34.763618,-88.918819,MISSISSIPPI
23141,28141,MS,TISHOMINGO,34.737697,-88.236064,MISSISSIPPI
23143,28143,MS,TUNICA,34.652201,-90.37177,MISSISSIPPI
23145,28145,MS,UNION,34.489533,-89.002339,MISSISSIPPI
23147,28147,MS,WALTHALL,31.164492,-90.103431,MISSISSIPPI
23149,28149,MS,WARREN,32.356095,-90.852384,MISSISSIPPI
23151,28151,MS,WASHINGTON,33.273174,-90.944446,MISSISSIPPI
23153,28153,MS,WAYNE,31.642503,-88.678214,MISSISSIPPI
23155,28155,MS,WEBSTER,33.612048,-89.283836,MISSISSIPPI
23157,28157,MS,WILKINSON,31.161091,-91.324617,MISSISSIPPI
23159,28159,MS,WINSTON,33.078724,-89.037391,MISSISSIPPI
23161,28161,MS,YALOBUSHA,34.030666,-89.703807,MISSISSIPPI
23163,28163,MS,YAZOO,32.765675,-90.387928,MISSISSIPPI
23245,,MS,HANCOK O,,,MISSISSIPPI
23247,,MS,HARSON O,,,MISSISSIPPI
23259,,MS,JACKSN O,,,MISSISSIPPI
24001,29001,MO,ADAIR,40.190666,-92.603592,MISSOURI
24003,29003,MO,ANDREW,39.988863,-94.803551,MISSOURI
24005,29005,MO,ATCHISON,40.431846,-95.437555,MISSOURI
24007,29007,MO,AUDRAIN,39.21448,-91.843415,MISSOURI
24009,29009,MO,BARRY,36.699378,-93.834326,MISSOURI
24011,29011,MO,BARTON,37.500799,-94.344089,MISSOURI
24013,29013,MO,BATES,38.257217,-94.339246,MISSOURI
24015,29015,MO,BENTON,38.301036,-93.287942,MISSOURI
24017,29017,MO,BOLLINGER,37.318346,-90.024604,MISSOURI
24019,29019,MO,BOONE,38.989861,-92.310202,MISSOURI
24021,29021,MO,BUCHANAN,39.660369,-94.808173,MISSOURI
24023,29023,MO,BUTLER,36.71518,-90.40313,MISSOURI
24025,29025,MO,CALDWELL,39.658998,-93.979179,MISSOURI
24027,29027,MO,CALLAWAY,38.835547,-91.923446,MISSOURI
24029,29029,MO,CAMDEN,38.026527,-92.765327,MISSOURI
24031,29031,MO,CAPE GIRARDEAU,37.384141,-89.685658,MISSOURI
24033,29033,MO,CARROLL,39.427375,-93.500227,MISSOURI
24035,29035,MO,CARTER,36.944858,-90.945705,MISSOURI
24037,29037,MO,CASS,38.646474,-94.354547,MISSOURI
24039,29039,MO,CEDAR,37.733655,-93.850014,MISSOURI
24041,29041,MO,CHARITON,39.517968,-92.96162,MISSOURI
24043,29043,MO,CHRISTIAN,36.969739,-93.187614,MISSOURI
24045,29045,MO,CLARK,40.407275,-91.729472,MISSOURI
24047,29047,MO,CLAY,39.315551,-94.421502,MISSOURI
24049,29049,MO,CLINTON,39.608723,-94.395803,MISSOURI
24051,29051,MO,COLE,38.503233,-92.280027,MISSOURI
24053,29053,MO,COOPER,38.845386,-92.812323,MISSOURI
24055,29055,MO,CRAWFORD,37.96656,-91.313933,MISSOURI
24057,29057,MO,DADE,37.43235,-93.854878,MISSOURI
24059,29059,MO,DALLAS,37.683583,-93.033815,MISSOURI
24061,29061,MO,DAVIESS,39.962839,-93.970053,MISSOURI
24063,29063,MO,DEKALB,39.894665,-94.40719,MISSOURI
24065,29065,MO,DENT,37.603075,-91.489716,MISSOURI
24067,29067,MO,DOUGLAS,36.946517,-92.515892,MISSOURI
24069,29069,MO,DUNKLIN,36.306905,-90.065394,MISSOURI
24071,29071,MO,FRANKLIN,38.408313,-91.07341,MISSOURI
24073,29073,MO,GASCONADE,38.441183,-91.50578,MISSOURI
24075,29075,MO,GENTRY,40.208127,-94.405321,MISSOURI
24077,29077,MO,GREENE,37.258196,-93.340641,MISSOURI
24079,29079,MO,GRUNDY,40.112541,-93.565054,MISSOURI
24081,29081,MO,HARRISON,40.34562,-93.992582,MISSOURI
24083,29083,MO,HENRY,38.386491,-93.792628,MISSOURI
24085,29085,MO,HICKORY,37.9367,-93.322834,MISSOURI
24087,29087,MO,HOLT,40.095724,-95.219072,MISSOURI
24089,29089,MO,HOWARD,39.143365,-92.695926,MISSOURI
24091,29091,MO,HOWELL,36.774369,-91.887368,MISSOURI
24093,29093,MO,IRON,37.594364,-90.984682,MISSOURI
24095,29095,MO,JACKSON,39.005441,-94.343326,MISSOURI
24097,29097,MO,JASPER,37.205197,-94.337259,MISSOURI
24099,29099,MO,JEFFERSON,38.257599,-90.543542,MISSOURI
24101,29101,MO,JOHNSON,38.741528,-93.811863,MISSOURI
24103,29103,MO,KNOX,40.136856,-92.146835,MISSOURI
24105,29105,MO,LACLEDE,37.659688,-92.59484,MISSOURI
24107,29107,MO,LAFAYETTE,39.068705,-93.802639,MISSOURI
24109,29109,MO,LAWRENCE,37.10659,-93.830551,MISSOURI
24111,29111,MO,LEWIS,40.084559,-91.728803,MISSOURI
24113,29113,MO,LINCOLN,39.062255,-90.962916,MISSOURI
24115,29115,MO,LINN,39.86444,-93.108019,MISSOURI
24117,29117,MO,LIVINGSTON,39.778587,-93.548201,MISSOURI
24119,29119,MO,MCDONALD,36.630218,-94.343956,MISSOURI
24121,29121,MO,MACON,39.829795,-92.56434,MISSOURI
24123,29123,MO,MADISON,37.473235,-90.345453,MISSOURI
24125,29125,MO,MARIES,38.162615,-91.923601,MISSOURI
24127,29127,MO,MARION,39.807538,-91.635379,MISSOURI
24129,29129,MO,MERCER,40.421413,-93.567631,MISSOURI
24131,29131,MO,MILLER,38.21668,-92.429876,MISSOURI
24133,29133,MO,MISSISSIPPI,36.826264,-89.295929,MISSOURI
24135,29135,MO,MONITEAU,38.633037,-92.583642,MISSOURI
24137,29137,MO,MONROE,39.49827,-92.006458,MISSOURI
24139,29139,MO,MONTGOMERY,38.935184,-91.465427,MISSOURI
24141,29141,MO,MORGAN,38.420807,-92.874835,MISSOURI
24143,29143,MO,NEW MADRID,36.594261,-89.655948,MISSOURI
24145,29145,MO,NEWTON,36.908364,-94.335021,MISSOURI
24147,29147,MO,NODAWAY,40.361136,-94.883146,MISSOURI
24149,29149,MO,OREGON,36.68531,-91.401827,MISSOURI
24151,29151,MO,OSAGE,38.464253,-91.859504,MISSOURI
24153,29153,MO,OZARK,36.64959,-92.458549,MISSOURI
24155,29155,MO,PEMISCOT,36.209916,-89.785942,MISSOURI
24157,29157,MO,PERRY,37.71113,-89.802125,MISSOURI
24159,29159,MO,PETTIS,38.727367,-93.285207,MISSOURI
24161,29161,MO,PHELPS,37.866326,-91.790349,MISSOURI
24163,29163,MO,PIKE,39.339959,-91.171607,MISSOURI
24165,29165,MO,PLATTE,39.378696,-94.761472,MISSOURI
24167,29167,MO,POLK,37.616761,-93.400817,MISSOURI
24169,29169,MO,PULASKI,37.824835,-92.207022,MISSOURI
24171,29171,MO,PUTNAM,40.478606,-93.014531,MISSOURI
24173,29173,MO,RALLS,39.553455,-91.524787,MISSOURI
24175,29175,MO,RANDOLPH,39.439249,-92.492959,MISSOURI
24177,29177,MO,RAY,39.308401,-93.995746,MISSOURI
24179,29179,MO,REYNOLDS,37.360857,-90.969516,MISSOURI
24181,29181,MO,RIPLEY,36.648902,-90.86706,MISSOURI
24183,29183,MO,ST. CHARLES,38.781102,-90.674915,MISSOURI
24185,29185,MO,ST. CLAIR,38.039069,-93.773076,MISSOURI
24187,29187,MO,ST. FRANCOIS,37.810707,-90.473868,MISSOURI
24189,29189,MO,ST. LOUIS,38.640702,-90.445954,MISSOURI
24191,,MO,ST L CY,,,MISSOURI
24193,,MO,ST GENEV,,,MISSOURI
24195,29195,MO,SALINE,39.13584,-93.204164,MISSOURI
24197,29197,MO,SCHUYLER,40.469361,-92.519016,MISSOURI
24199,29199,MO,SCOTLAND,40.447686,-92.142824,MISSOURI
24201,29201,MO,SCOTT,37.047793,-89.568098,MISSOURI
24203,29203,MO,SHANNON,37.152498,-91.391328,MISSOURI
24205,29205,MO,SHELBY,39.797531,-92.088719,MISSOURI
24207,29207,MO,STODDARD,36.851557,-89.947481,MISSOURI
24209,29209,MO,STONE,36.751004,-93.473701,MISSOURI
24211,29211,MO,SULLIVAN,40.209587,-93.109783,MISSOURI
24213,29213,MO,TANEY,36.649827,-93.042819,MISSOURI
24215,29215,MO,TEXAS,37.314257,-91.964478,MISSOURI
24217,29217,MO,VERNON,37.850196,-94.341597,MISSOURI
24219,29219,MO,WARREN,38.761902,-91.159306,MISSOURI
24221,29221,MO,WASHINGTON,37.942611,-90.897018,MISSOURI
24223,29223,MO,WAYNE,37.111106,-90.453801,MISSOURI
24225,29225,MO,WEBSTER,37.280804,-92.87608,MISSOURI
24227,29227,MO,WORTH,40.480192,-94.418748,MISSOURI
24229,29229,MO,WRIGHT,37.267636,-92.48001,MISSOURI
24510,29510,MO,ST. LOUIS,38.635699,-90.244582,MISSOURI
25001,30001,MT,BEAVERHEAD,45.133863,-112.892869,MONTANA
25003,30003,MT,BIG HORN,45.407869,-107.518163,MONTANA
25005,30005,MT,BLAINE,48.428282,-108.967648,MONTANA
25007,30007,MT,BROADWATER,46.329849,-111.497873,MONTANA
25009,30009,MT,CARBON,45.224468,-109.028554,MONTANA
25011,30011,MT,CARTER,45.516825,-104.515324,MONTANA
25013,30013,MT,CASCADE,47.316443,-111.350571,MONTANA
25015,30015,MT,CHOUTEAU,47.886834,-110.4362,MONTANA
25017,30017,MT,CUSTER,46.261414,-105.550352,MONTANA
25019,30019,MT,DANIELS,48.794429,-105.541739,MONTANA
25021,30021,MT,DAWSON,47.26613,-104.898271,MONTANA
25023,30023,MT,DEER LODGE,46.094672,-113.141624,MONTANA
25025,30025,MT,FALLON,46.318184,-104.405718,MONTANA
25027,30027,MT,FERGUS,47.225221,-109.232138,MONTANA
25029,30029,MT,FLATHEAD,48.314678,-114.054295,MONTANA
25031,30031,MT,GALLATIN,45.518054,-111.163921,MONTANA
25033,30033,MT,GARFIELD,47.280033,-106.986706,MONTANA
25035,30035,MT,GLACIER,48.705671,-112.990502,MONTANA
25037,30037,MT,GOLDEN VALLEY,46.380624,-109.174586,MONTANA
25039,30039,MT,GRANITE,46.395955,-113.427356,MONTANA
25041,30041,MT,HILL,48.631959,-110.106321,MONTANA
25043,30043,MT,JEFFERSON,46.124232,-112.059428,MONTANA
25045,30045,MT,JUDITH BASIN,47.032558,-110.30532,MONTANA
25047,30047,MT,LAKE,47.642901,-114.083687,MONTANA
25049,30049,MT,LEWIS AND CLARK,47.122105,-112.38289,MONTANA
25051,30051,MT,LIBERTY,48.559654,-111.036924,MONTANA
25053,30053,MT,LINCOLN,48.552385,-115.463185,MONTANA
25055,30055,MT,MCCONE,47.629628,-105.757222,MONTANA
25057,30057,MT,MADISON,45.32529,-111.91379,MONTANA
25059,30059,MT,MEAGHER,46.5857,-110.92174,MONTANA
25061,30061,MT,MINERAL,47.154863,-115.064639,MONTANA
25063,30063,MT,MISSOULA,47.027263,-113.892691,MONTANA
25065,30065,MT,MUSSELSHELL,46.505281,-108.439763,MONTANA
25067,30067,MT,PARK,45.421429,-110.53276,MONTANA
25069,30069,MT,PETROLEUM,47.141917,-108.226575,MONTANA
25071,30071,MT,PHILLIPS,48.250143,-107.928897,MONTANA
25073,30073,MT,PONDERA,48.228604,-112.220761,MONTANA
25075,30075,MT,POWDER RIVER,45.408926,-105.555344,MONTANA
25077,30077,MT,POWELL,46.844225,-112.9311,MONTANA
25079,30079,MT,PRAIRIE,46.812384,-105.503994,MONTANA
25081,30081,MT,RAVALLI,46.077744,-114.105795,MONTANA
25083,30083,MT,RICHLAND,47.785633,-104.563408,MONTANA
25085,30085,MT,ROOSEVELT,48.282747,-104.99517,MONTANA
25087,30087,MT,ROSEBUD,46.173233,-106.666746,MONTANA
25089,30089,MT,SANDERS,47.756497,-115.180306,MONTANA
25091,30091,MT,SHERIDAN,48.705523,-104.533913,MONTANA
25093,30093,MT,SILVER BOW,45.896232,-112.660071,MONTANA
25095,30095,MT,STILLWATER,45.658577,-109.381702,MONTANA
25097,30097,MT,SWEET GRASS,45.811292,-109.944796,MONTANA
25099,30099,MT,TETON,47.819035,-112.281725,MONTANA
25101,30101,MT,TOOLE,48.645125,-111.733472,MONTANA
25103,30103,MT,TREASURE,46.209558,-107.280369,MONTANA
25105,30105,MT,VALLEY,48.34985,-106.670424,MONTANA
25107,30107,MT,WHEATLAND,46.497047,-109.857147,MONTANA
25109,30109,MT,WIBAUX,46.962966,-104.274518,MONTANA
25111,30111,MT,YELLOWSTONE,45.936987,-108.276656,MONTANA
25113,,MT,YLSTN NP,,,MONTANA
26001,31001,NE,ADAMS,40.520632,-98.500044,NEBRASKA
26003,31003,NE,ANTELOPE,42.183225,-98.058037,NEBRASKA
26005,31005,NE,ARTHUR,41.571944,-101.695898,NEBRASKA
26007,31007,NE,BANNER,41.53975,-103.726263,NEBRASKA
26009,31009,NE,BLAINE,41.92523,-99.990771,NEBRASKA
26011,31011,NE,BOONE,41.703934,-98.070476,NEBRASKA
26013,31013,NE,BOX BUTTE,42.21038,-103.081779,NEBRASKA
26015,31015,NE,BOYD,42.894448,-98.773022,NEBRASKA
26017,31017,NE,BROWN,42.359562,-99.92392,NEBRASKA
26019,31019,NE,BUFFALO,40.855226,-99.074983,NEBRASKA
26021,31021,NE,BURT,41.854179,-96.337746,NEBRASKA
26023,31023,NE,BUTLER,41.226072,-97.132039,NEBRASKA
26025,31025,NE,CASS,40.909878,-96.140609,NEBRASKA
26027,31027,NE,CEDAR,42.60456,-97.25687,NEBRASKA
26029,31029,NE,CHASE,40.53039,-101.694192,NEBRASKA
26031,31031,NE,CHERRY,42.571323,-101.047653,NEBRASKA
26033,31033,NE,CHEYENNE,41.214236,-103.011929,NEBRASKA
26035,31035,NE,CLAY,40.523669,-98.05105,NEBRASKA
26037,31037,NE,COLFAX,41.57496,-97.088945,NEBRASKA
26039,31039,NE,CUMING,41.915865,-96.788517,NEBRASKA
26041,31041,NE,CUSTER,41.393893,-99.726866,NEBRASKA
26043,31043,NE,DAKOTA,42.391645,-96.561356,NEBRASKA
26045,31045,NE,DAWES,42.711214,-103.134872,NEBRASKA
26047,31047,NE,DAWSON,40.867378,-99.815154,NEBRASKA
26049,31049,NE,DEUEL,41.111903,-102.332609,NEBRASKA
26051,31051,NE,DIXON,42.48528,-96.855862,NEBRASKA
26053,31053,NE,DODGE,41.577008,-96.645853,NEBRASKA
26055,31055,NE,DOUGLAS,41.297091,-96.154066,NEBRASKA
26057,31057,NE,DUNDY,40.180165,-101.681133,NEBRASKA
26059,31059,NE,FILLMORE,40.52504,-97.596705,NEBRASKA
26061,31061,NE,FRANKLIN,40.183203,-98.96208,NEBRASKA
26063,31063,NE,FRONTIER,40.530947,-100.406683,NEBRASKA
26065,31065,NE,FURNAS,40.191865,-99.909663,NEBRASKA
26067,31067,NE,GAGE,40.255234,-96.683453,NEBRASKA
26069,31069,NE,GARDEN,41.633364,-102.302985,NEBRASKA
26071,31071,NE,GARFIELD,41.906868,-98.951231,NEBRASKA
26073,31073,NE,GOSPER,40.509095,-99.823206,NEBRASKA
26075,31075,NE,GRANT,41.913957,-101.755965,NEBRASKA
26077,31077,NE,GREELEY,41.567571,-98.530565,NEBRASKA
26079,31079,NE,HALL,40.866027,-98.502664,NEBRASKA
26081,31081,NE,HAMILTON,40.872817,-98.022329,NEBRASKA
26083,31083,NE,HARLAN,40.178766,-99.403418,NEBRASKA
26085,31085,NE,HAYES,40.537234,-101.047963,NEBRASKA
26087,31087,NE,HITCHCOCK,40.176896,-101.044217,NEBRASKA
26089,31089,NE,HOLT,42.459287,-98.784766,NEBRASKA
26091,31091,NE,HOOKER,41.920317,-101.117324,NEBRASKA
26093,31093,NE,HOWARD,41.216851,-98.513342,NEBRASKA
26095,31095,NE,JEFFERSON,40.175736,-97.143103,NEBRASKA
26097,31097,NE,JOHNSON,40.39501,-96.265367,NEBRASKA
26099,31099,NE,KEARNEY,40.50912,-98.947602,NEBRASKA
26101,31101,NE,KEITH,41.194245,-101.644449,NEBRASKA
26103,31103,NE,KEYA PAHA,42.87548,-99.718351,NEBRASKA
26105,31105,NE,KIMBALL,41.199274,-103.703153,NEBRASKA
26107,31107,NE,KNOX,42.634404,-97.891349,NEBRASKA
26109,31109,NE,LANCASTER,40.783547,-96.688658,NEBRASKA
26111,31111,NE,LINCOLN,41.050322,-100.744481,NEBRASKA
26113,31113,NE,LOGAN,41.542155,-100.443665,NEBRASKA
26115,31115,NE,LOUP,41.897665,-99.509776,NEBRASKA
26117,31117,NE,MCPHERSON,41.648414,-101.120851,NEBRASKA
26119,31119,NE,MADISON,41.909929,-97.606856,NEBRASKA
26121,31121,NE,MERRICK,41.169801,-98.031051,NEBRASKA
26123,31123,NE,MORRILL,41.732204,-102.990594,NEBRASKA
26125,31125,NE,NANCE,41.402385,-97.991408,NEBRASKA
26127,31127,NE,NEMAHA,40.385236,-95.853056,NEBRASKA
26129,31129,NE,NUCKOLLS,40.176492,-98.046842,NEBRASKA
26131,31131,NE,OTOE,40.637992,-96.131027,NEBRASKA
26133,31133,NE,PAWNEE,40.13785,-96.245225,NEBRASKA
26135,31135,NE,PERKINS,40.857646,-101.627468,NEBRASKA
26137,31137,NE,PHELPS,40.516365,-99.406557,NEBRASKA
26139,31139,NE,PIERCE,42.271413,-97.610992,NEBRASKA
26141,31141,NE,PLATTE,41.576866,-97.513467,NEBRASKA
26143,31143,NE,POLK,41.187925,-97.570663,NEBRASKA
26145,31145,NE,RED WILLOW,40.16942,-100.468576,NEBRASKA
26147,31147,NE,RICHARDSON,40.123743,-95.718603,NEBRASKA
26149,31149,NE,ROCK,42.394749,-99.420851,NEBRASKA
26151,31151,NE,SALINE,40.516802,-97.131755,NEBRASKA
26153,31153,NE,SARPY,41.115064,-96.109125,NEBRASKA
26155,31155,NE,SAUNDERS,41.223152,-96.640923,NEBRASKA
26157,31157,NE,SCOTTS BLUFF,41.850331,-103.701549,NEBRASKA
26159,31159,NE,SEWARD,40.871944,-97.140383,NEBRASKA
26161,31161,NE,SHERIDAN,42.512289,-102.36828,NEBRASKA
26163,31163,NE,SHERMAN,41.218743,-98.972849,NEBRASKA
26165,31165,NE,SIOUX,42.470612,-103.732111,NEBRASKA
26167,31167,NE,STANTON,41.905045,-97.177109,NEBRASKA
26169,31169,NE,THAYER,40.173845,-97.596263,NEBRASKA
26171,31171,NE,THOMAS,41.84862,-100.506911,NEBRASKA
26173,31173,NE,THURSTON,42.154061,-96.533943,NEBRASKA
26175,31175,NE,VALLEY,41.564094,-98.983484,NEBRASKA
26177,31177,NE,WASHINGTON,41.533973,-96.224577,NEBRASKA
26179,31179,NE,WAYNE,42.210746,-97.126243,NEBRASKA
26181,31181,NE,WEBSTER,40.180646,-98.49859,NEBRASKA
26183,31183,NE,WHEELER,41.922578,-98.520851,NEBRASKA
26185,31185,NE,YORK,40.873056,-97.596742,NEBRASKA
27001,32001,NV,CHURCHILL,39.53771,-118.264165,NEVADA
27003,32003,NV,CLARK,36.214257,-115.013812,NEVADA
27005,32005,NV,DOUGLAS,38.905129,-119.609019,NEVADA
27007,32007,NV,ELKO,41.141133,-115.351424,NEVADA
27009,32009,NV,ESMERALDA,37.778966,-117.632382,NEVADA
27011,32011,NV,EUREKA,39.977788,-116.272208,NEVADA
27013,32013,NV,HUMBOLDT,41.407914,-118.127591,NEVADA
27015,32015,NV,LANDER,39.90021,-117.04724,NEVADA
27017,32017,NV,LINCOLN,37.634605,-114.863037,NEVADA
27019,32019,NV,LYON,39.022213,-119.197425,NEVADA
27021,32021,NV,MINERAL,38.516647,-118.416279,NEVADA
27023,32023,NV,NYE,37.965864,-116.459011,NEVADA
27025,,NV,CARSON C,,,NEVADA
27027,32027,NV,PERSHING,40.439639,-118.409477,NEVADA
27029,32029,NV,STOREY,39.438385,-119.524646,NEVADA
27031,32031,NV,WASHOE,40.734015,-119.662272,NEVADA
27033,32033,NV,WHITE PINE,39.418234,-114.900605,NEVADA
27510,32510,NV,CARSON CITY,39.15306,-119.747379,NEVADA
28001,33001,NH,BELKNAP,43.519109,-71.425366,NEW HAMPSHIRE
28003,33003,NH,CARROLL,43.867774,-71.20156,NEW HAMPSHIRE
28005,33005,NH,CHESHIRE,42.925455,-72.248217,NEW HAMPSHIRE
28007,33007,NH,COOS,44.652548,-71.289431,NEW HAMPSHIRE
28009,33009,NH,GRAFTON,43.926439,-71.842422,NEW HAMPSHIRE
28011,33011,NH,HILLSBOROUGH,42.911532,-71.723055,NEW HAMPSHIRE
28013,33013,NH,MERRIMACK,43.299579,-71.680041,NEW HAMPSHIRE
28015,33015,NH,ROCKINGHAM,42.988599,-71.099072,NEW HAMPSHIRE
28017,33017,NH,STRAFFORD,43.293272,-71.035589,NEW HAMPSHIRE
28019,33019,NH,SULLIVAN,43.361188,-72.222084,NEW HAMPSHIRE
28215,,NH,ROCKHM O,,,NEW HAMPSHIRE
29001,34001,NJ,ATLANTIC,39.469354,-74.633758,NEW JERSEY
29003,34003,NJ,BERGEN,40.959698,-74.074727,NEW JERSEY
29005,34005,NJ,BURLINGTON,39.875786,-74.663006,NEW JERSEY
29007,34007,NJ,CAMDEN,39.802352,-74.961251,NEW JERSEY
29009,34009,NJ,CAPE MAY,39.086142,-74.847716,NEW JERSEY
29011,34011,NJ,CUMBERLAND,39.328434,-75.121628,NEW JERSEY
29013,34013,NJ,ESSEX,40.7874,-74.246292,NEW JERSEY
29015,34015,NJ,GLOUCESTER,39.722875,-75.145679,NEW JERSEY
29017,34017,NJ,HUDSON,40.731375,-74.078601,NEW JERSEY
29019,34019,NJ,HUNTERDON,40.565283,-74.911969,NEW JERSEY
29021,34021,NJ,MERCER,40.282503,-74.703724,NEW JERSEY
29023,34023,NJ,MIDDLESEX,40.439621,-74.40743,NEW JERSEY
29025,34025,NJ,MONMOUTH,40.287048,-74.152446,NEW JERSEY
29027,34027,NJ,MORRIS,40.858896,-74.547292,NEW JERSEY
29029,34029,NJ,OCEAN,39.865669,-74.258864,NEW JERSEY
29031,34031,NJ,PASSAIC,41.03789,-74.29828,NEW JERSEY
29033,34033,NJ,SALEM,39.573828,-75.357356,NEW JERSEY
29035,34035,NJ,SOMERSET,40.565527,-74.619938,NEW JERSEY
29037,34037,NJ,SUSSEX,41.137461,-74.691914,NEW JERSEY
29039,34039,NJ,UNION,40.659871,-74.308696,NEW JERSEY
29041,34041,NJ,WARREN,40.853491,-75.009498,NEW JERSEY
29201,,NJ,ATLNTC O,,,NEW JERSEY
29209,,NJ,CP MAY O,,,NEW JERSEY
29225,,NJ,MONMTH O,,,NEW JERSEY
29229,,NJ,OCEAN O,,,NEW JERSEY
30001,35001,NM,BERNALILLO,35.054002,-106.669064,NEW MEXICO
30003,35003,NM,CATRON,33.901858,-108.392088,NEW MEXICO
30005,35005,NM,CHAVES,33.361604,-104.469837,NEW MEXICO
30006,35006,NM,CIBOLA,34.93205,-108.000374,NEW MEXICO
30007,35007,NM,COLFAX,36.612964,-104.64011,NEW MEXICO
30009,35009,NM,CURRY,34.572984,-103.346055,NEW MEXICO
30011,35011,NM,DE BACA,34.359273,-104.368696,NEW MEXICO
30013,35013,NM,DONA ANA,32.34992,-106.834969,NEW MEXICO
30015,35015,NM,EDDY,32.457835,-104.306434,NEW MEXICO
30017,35017,NM,GRANT,32.732087,-108.381504,NEW MEXICO
30019,35019,NM,GUADALUPE,34.869782,-104.784968,NEW MEXICO
30021,35021,NM,HARDING,35.85958,-103.851495,NEW MEXICO
30023,35023,NM,HIDALGO,31.898052,-108.751929,NEW MEXICO
30025,35025,NM,LEA,32.795687,-103.413271,NEW MEXICO
30027,35027,NM,LINCOLN,33.740841,-105.449805,NEW MEXICO
30028,35028,NM,LOS ALAMOS,35.870047,-106.307968,NEW MEXICO
30029,35029,NM,LUNA,32.184523,-107.747191,NEW MEXICO
30031,35031,NM,MCKINLEY,35.583878,-108.253266,NEW MEXICO
30033,35033,NM,MORA,35.982841,-104.921898,NEW MEXICO
30035,35035,NM,OTERO,32.588776,-105.78098,NEW MEXICO
30037,35037,NM,QUAY,35.107018,-103.548071,NEW MEXICO
30039,35039,NM,RIO ARRIBA,36.509669,-106.693983,NEW MEXICO
30041,35041,NM,ROOSEVELT,34.021207,-103.483004,NEW MEXICO
30043,35043,NM,SANDOVAL,35.685091,-106.883119,NEW MEXICO
30045,35045,NM,SAN JUAN,36.511624,-108.324578,NEW MEXICO
30047,35047,NM,SAN MIGUEL,35.476859,-104.803519,NEW MEXICO
30049,35049,NM,SANTA FE,35.514324,-105.965771,NEW MEXICO
30051,35051,NM,SIERRA,33.119468,-107.188161,NEW MEXICO
30053,35053,NM,SOCORRO,33.991658,-106.939136,NEW MEXICO
30055,35055,NM,TAOS,36.576529,-105.637986,NEW MEXICO
30057,35057,NM,TORRANCE,34.554977,-105.890553,NEW MEXICO
30059,35059,NM,UNION,36.488085,-103.475723,NEW MEXICO
30061,35061,NM,VALENCIA,34.71684,-106.806582,NEW MEXICO
31001,36001,NY,ALBANY,42.58824,-73.97401,NEW YORK
31003,36003,NY,ALLEGANY,42.247853,-78.026153,NEW YORK
31005,36005,NY,BRONX,40.848711,-73.852939,NEW YORK
31007,36007,NY,BROOME,42.161977,-75.830283,NEW YORK
31009,36009,NY,CATTARAUGUS,42.239099,-78.662332,NEW YORK
31011,36011,NY,CAYUGA,43.008546,-76.574587,NEW YORK
31013,36013,NY,CHAUTAUQUA,42.304216,-79.407595,NEW YORK
31015,36015,NY,CHEMUNG,42.15528,-76.747179,NEW YORK
31017,36017,NY,CHENANGO,42.478024,-75.602241,NEW YORK
31019,36019,NY,CLINTON,44.752712,-73.705643,NEW YORK
31021,36021,NY,COLUMBIA,42.247729,-73.626806,NEW YORK
31023,36023,NY,CORTLAND,42.594039,-76.07624,NEW YORK
31025,36025,NY,DELAWARE,42.193986,-74.966728,NEW YORK
31027,36027,NY,DUTCHESS,41.75477,-73.740041,NEW YORK
31029,36029,NY,ERIE,42.752759,-78.778192,NEW YORK
